{
  "version": 0.6,
  "generator": "Overpass API 0.7.59 e21c39fe",
  "osm3s": {
    "timestamp_osm_base": "2022-10-25T20:24:08Z",
    "timestamp_areas_base": "2022-10-25T18:50:38Z",
    "copyright": "The data included in this document is from www.openstreetmap.org. The data is made available under ODbL."
  },
  "elements": [

{
  "type": "node",
  "id": 26384098,
  "lat": 52.1899529,
  "lon": 5.9622969,
  "tags": {
    "addr:city": "Apeldoorn",
    "addr:street": "Arnhemseweg",
    "amenity": "fuel",
    "brand": "Tamoil",
    "brand:wikidata": "Q706793",
    "brand:wikipedia": "en:Tamoil",
    "name": "Tamoil"
  }
},
{
  "type": "node",
  "id": 26516190,
  "lat": 52.1955031,
  "lon": 5.9624217,
  "tags": {
    "addr:city": "Apeldoorn",
    "addr:country": "NL",
    "addr:housenumber": "221",
    "addr:postcode": "7331JC",
    "addr:street": "Arnhemseweg",
    "amenity": "fuel",
    "brand": "Tinq",
    "brand:wikidata": "Q2132028",
    "brand:wikipedia": "nl:Tinq",
    "name": "Tinq",
    "source": "BAG",
    "source:date": "2014-02-11"
  }
},
{
  "type": "node",
  "id": 26866817,
  "lat": 52.1034220,
  "lon": 5.7706604,
  "tags": {
    "addr:city": "Otterlo",
    "addr:housenumber": "34",
    "addr:postcode": "6731AB",
    "addr:street": "Harskamperweg",
    "amenity": "fuel",
    "brand": "Tinq",
    "brand:wikidata": "Q2132028",
    "brand:wikipedia": "nl:Tinq",
    "name": "TinQ",
    "website": "http://www.tinq.nl"
  }
},
{
  "type": "node",
  "id": 27082278,
  "lat": 52.0012405,
  "lon": 4.3502639,
  "tags": {
    "addr:city": "Delft",
    "addr:country": "NL",
    "addr:housenumber": "52",
    "addr:postcode": "2624AD",
    "addr:street": "Westlandseweg",
    "amenity": "fuel",
    "brand": "Shell",
    "brand:wikidata": "Q110716465",
    "brand:wikipedia": "en:Royal Dutch Shell",
    "check_date:opening_hours": "2022-04-30",
    "name": "Shell",
    "opening_hours": "Mo-Fr 06:00-23:00; Sa 07:00-23:00; Su 08:00-23:00",
    "payment:coins": "no",
    "payment:notes": "no",
    "source": "BAG",
    "source:date": "2013-11-26",
    "toilets": "yes"
  }
},
{
  "type": "node",
  "id": 27297334,
  "lat": 52.1787716,
  "lon": 5.9835950,
  "tags": {
    "addr:city": "Apeldoorn",
    "addr:housenumber": "66",
    "addr:postcode": "7332BR",
    "addr:street": "Lange Amerikaweg",
    "amenity": "fuel",
    "brand": "Shell",
    "brand:wikidata": "Q110716465",
    "brand:wikipedia": "en:Royal Dutch Shell",
    "fuel:diesel": "yes",
    "fuel:electricity": "yes",
    "fuel:lpg": "yes",
    "fuel:octane_95": "yes",
    "fuel:octane_98": "yes",
    "fuel:propane": "yes",
    "name": "Shell",
    "opening_hours": "24/7",
    "operator": "Shell Lange Amerikaweg",
    "payment:cash": "yes",
    "payment:credit_cards": "yes",
    "payment:mastercard": "yes",
    "phone": "+31 55 538 0452",
    "website": "https://find.shell.com/nl/fuel/10050950-shell-station-lange-amerikaweg"
  }
},
{
  "type": "node",
  "id": 27297346,
  "lat": 52.1939460,
  "lon": 5.9865179,
  "tags": {
    "amenity": "fuel",
    "brand": "BP",
    "brand:wikidata": "Q152057",
    "brand:wikipedia": "en:BP",
    "fuel:diesel": "yes",
    "fuel:octane_95": "yes",
    "name": "BP",
    "operator": "BP"
  }
},
{
  "type": "node",
  "id": 27429205,
  "lat": 52.2022939,
  "lon": 5.9947641,
  "tags": {
    "addr:city": "Apeldoorn",
    "addr:country": "NL",
    "addr:housenumber": "187",
    "addr:postcode": "7329AB",
    "addr:street": "Laan van Maten",
    "amenity": "fuel",
    "brand": "Shell Express",
    "brand:wikidata": "Q2289188",
    "brand:wikipedia": "nl:Shell Express",
    "fuel:diesel": "yes",
    "fuel:e10": "yes",
    "fuel:octane_98": "yes",
    "name": "Shell Express",
    "operator": "Shell",
    "payment:maestro": "yes",
    "payment:v_pay": "yes",
    "self_service": "yes"
  }
},
{
  "type": "node",
  "id": 29816136,
  "lat": 52.0821960,
  "lon": 4.8663546,
  "tags": {
    "amenity": "fuel",
    "brand": "Total",
    "brand:wikidata": "Q154037",
    "brand:wikipedia": "fr:TotalEnergies",
    "name": "Total"
  }
},
{
  "type": "node",
  "id": 29818653,
  "lat": 52.9945480,
  "lon": 6.5351699,
  "tags": {
    "amenity": "fuel",
    "brand": "BP",
    "brand:wikidata": "Q152057",
    "brand:wikipedia": "en:BP",
    "name": "BP",
    "operator": "BP"
  }
},
{
  "type": "node",
  "id": 29818656,
  "lat": 52.9920027,
  "lon": 6.5172737,
  "tags": {
    "amenity": "fuel",
    "brand": "Gulf",
    "brand:wikidata": "Q5617505",
    "brand:wikipedia": "en:Gulf Oil",
    "name": "Gulf",
    "operator": "Gulf"
  }
},
{
  "type": "node",
  "id": 29845386,
  "lat": 52.0757905,
  "lon": 4.9010933,
  "tags": {
    "addr:city": "Woerden",
    "addr:housenumber": "2",
    "addr:postcode": "3446CE",
    "addr:street": "Europabaan",
    "amenity": "fuel",
    "brand": "BP",
    "brand:wikidata": "Q152057",
    "brand:wikipedia": "en:BP",
    "check_date": "2022-07-30",
    "fuel:diesel": "yes",
    "fuel:e10": "yes",
    "fuel:lpg": "yes",
    "fuel:octane_95": "yes",
    "fuel:octane_98": "yes",
    "internet_access": "no",
    "name": "BP D!vers Woerden",
    "opening_hours": "24/7",
    "phone": "+31 348 434 234",
    "shop": "kiosk",
    "source": "BAG",
    "source:date": "2016-11-14",
    "wheelchair": "yes"
  }
},
{
  "type": "node",
  "id": 30118637,
  "lat": 52.3688826,
  "lon": 4.9707321,
  "tags": {
    "addr:city": "Amsterdam",
    "addr:country": "NL",
    "addr:housenumber": "11",
    "addr:postcode": "1095KG",
    "addr:street": "IJburglaan",
    "amenity": "fuel",
    "brand": "BP",
    "brand:wikidata": "Q154950",
    "brand:wikipedia": "en:Royal Dutch Shell",
    "building": "yes",
    "fuel:GTL_diesel": "yes",
    "fuel:diesel": "yes",
    "fuel:octane_95": "yes",
    "name": "BP",
    "note": "owned and operated by students; fuel brand: Shell.",
    "opening_hours": "Mo-Su 06:00-23:00",
    "operator": "BP",
    "payment:cash": "yes",
    "payment:maestro": "yes",
    "payment:mastercard": "yes",
    "payment:visa": "yes",
    "shop": "convenience"
  }
},
{
  "type": "node",
  "id": 30250470,
  "lat": 52.3050283,
  "lon": 4.9228026,
  "tags": {
    "amenity": "fuel",
    "opening_hours": "24/7",
    "operator": "Esso"
  }
},
{
  "type": "node",
  "id": 30264379,
  "lat": 52.0866096,
  "lon": 4.8634481,
  "tags": {
    "amenity": "fuel",
    "name": "Esso Woerden",
    "opening_hours": "Mo-Su 06:00-22:00",
    "operator": "EFR Services Netherlands BV"
  }
},
{
  "type": "node",
  "id": 30337573,
  "lat": 52.3426600,
  "lon": 4.8569984,
  "tags": {
    "addr:city": "Amsterdam",
    "addr:country": "NL",
    "addr:housenumber": "36",
    "addr:postcode": "1076CM",
    "addr:street": "Stadionplein",
    "amenity": "fuel",
    "brand": "Total",
    "brand:wikidata": "Q154037",
    "brand:wikipedia": "fr:TotalEnergies",
    "description": "selfservicestation",
    "name": "Total",
    "operator": "Total",
    "website": "http://www.total.nl",
    "wheelchair": "yes"
  }
},
{
  "type": "node",
  "id": 30409789,
  "lat": 52.1000376,
  "lon": 5.0861909,
  "tags": {
    "amenity": "fuel",
    "brand": "Esso",
    "brand:wikidata": "Q867662",
    "name": "Esso",
    "operator": "Esso",
    "wheelchair": "yes"
  }
},
{
  "type": "node",
  "id": 30417374,
  "lat": 52.7512109,
  "lon": 6.1894152,
  "tags": {
    "addr:street": "Rijksweg A32",
    "amenity": "fuel",
    "atmotorway": "yes",
    "fuel:diesel": "yes",
    "fuel:lpg": "yes",
    "fuel:octane_95": "yes",
    "fuel:octane_98": "yes",
    "name": "Texaco A32 Paardeweide",
    "operator": "EFR SERVICES NETHERLANDS B.V."
  }
},
{
  "type": "node",
  "id": 30650130,
  "lat": 52.0932965,
  "lon": 4.9016784,
  "tags": {
    "amenity": "fuel",
    "fuel:diesel": "yes",
    "fuel:lpg": "yes",
    "fuel:octane_95": "yes",
    "opening_hours": "24/7",
    "operator": "TinQ"
  }
},
{
  "type": "node",
  "id": 30745805,
  "lat": 51.9573134,
  "lon": 5.5791029,
  "tags": {
    "addr:city": "Rhenen",
    "addr:country": "NL",
    "addr:housenumber": "5",
    "addr:postcode": "3911AS",
    "addr:street": "Grebbeweg",
    "amenity": "fuel",
    "brand": "Gulf",
    "brand:wikidata": "Q5617505",
    "name": "Gulf",
    "survey:date": "2022-05-22",
    "wheelchair": "yes"
  }
},
{
  "type": "node",
  "id": 30791364,
  "lat": 52.5238187,
  "lon": 4.6999991,
  "tags": {
    "addr:city": "Uitgeest",
    "addr:country": "NL",
    "addr:housenumber": "1",
    "addr:street": "Provincialeweg",
    "amenity": "fuel",
    "brand": "Shell Express",
    "brand:wikidata": "Q2289188",
    "brand:wikipedia": "nl:Shell Express",
    "name": "Shell Express Uitgeest",
    "opening_hours": "24/7",
    "self_service": "yes"
  }
},
{
  "type": "node",
  "id": 30791365,
  "lat": 52.5215136,
  "lon": 4.7045620,
  "tags": {
    "amenity": "fuel",
    "brand": "Avia",
    "brand:wikidata": "Q300147",
    "brand:wikipedia": "de:Avia International",
    "name": "Avia"
  }
},
{
  "type": "node",
  "id": 30791366,
  "lat": 52.5620117,
  "lon": 4.6902903,
  "tags": {
    "addr:city": "Limmen",
    "addr:housenumber": "2",
    "addr:postcode": "1906BH",
    "addr:street": "Rijksweg",
    "amenity": "fuel",
    "brand": "Argos",
    "fuel:diesel": "yes",
    "fuel:octane_95": "yes",
    "name": "Argos",
    "operator": "GP Groot",
    "self_service": "yes",
    "source": "https://www.tankpro.nl/brandstof/2020/07/09/gp-groot-rondt-omkleuring-van-firezone-locaties-naar-argos-af/",
    "website": "https://www.argos.nl/tankstation/argos-limmen/"
  }
},
{
  "type": "node",
  "id": 30847145,
  "lat": 52.0064811,
  "lon": 5.0466937,
  "tags": {
    "amenity": "fuel",
    "brand": "Shell",
    "brand:wikidata": "Q154950",
    "brand:wikipedia": "en:Royal Dutch Shell",
    "name": "Shell",
    "operator": "Shell"
  }
},
{
  "type": "node",
  "id": 30956007,
  "lat": 52.3178526,
  "lon": 4.8700840,
  "tags": {
    "addr:city": "Amstelveen",
    "addr:housenumber": "10",
    "addr:postcode": "1183ZZ",
    "addr:street": "Beneluxbaan",
    "amenity": "fuel",
    "brand": "Esso",
    "brand:wikidata": "Q867662",
    "brand:wikipedia": "nl:Esso",
    "name": "Esso",
    "source": "BAG",
    "source:date": "2014-03-24",
    "website": "https://www.esso.nl/nl-nl/find-station/amstelveen--essooostbeneluxbaan-100175318nl"
  }
},
{
  "type": "node",
  "id": 30990260,
  "lat": 53.0854312,
  "lon": 6.5989842,
  "tags": {
    "addr:city": "Tynaarlo",
    "addr:country": "NL",
    "addr:housenumber": "1-3",
    "addr:street": "Energieweg",
    "amenity": "fuel",
    "brand": "Tinq",
    "brand:wikidata": "Q2132028",
    "brand:wikipedia": "nl:Tinq",
    "name": "Tinq"
  }
},
{
  "type": "node",
  "id": 30993503,
  "lat": 52.3490284,
  "lon": 4.8553261,
  "tags": {
    "addr:city": "Amsterdam",
    "addr:country": "NL",
    "addr:housenumber": "5",
    "addr:postcode": "1075PR",
    "addr:street": "Havenstraat",
    "amenity": "fuel",
    "brand": "Total",
    "brand:wikidata": "Q154037",
    "brand:wikipedia": "fr:TotalEnergies",
    "fuel:diesel": "yes",
    "fuel:lpg": "yes",
    "fuel:octane_95": "yes",
    "name": "Total",
    "operator": "Total",
    "phone": "+31 20 671 4678"
  }
},
{
  "type": "node",
  "id": 31003813,
  "lat": 52.4195943,
  "lon": 4.9121767,
  "tags": {
    "addr:city": "Landsmeer",
    "addr:street": "IJdoornlaan",
    "amenity": "fuel",
    "brand": "BP",
    "brand:wikidata": "Q152057",
    "fuel:diesel": "yes",
    "fuel:lpg": "yes",
    "fuel:octane_95": "yes",
    "fuel:octane_98": "yes",
    "name": "BP Kadoelen",
    "opening_hours": "24/7",
    "shop": "convenience"
  }
},
{
  "type": "node",
  "id": 31131699,
  "lat": 52.4586420,
  "lon": 5.0311645,
  "tags": {
    "amenity": "fuel",
    "brand": "Texaco",
    "name": "Texaco"
  }
},
{
  "type": "node",
  "id": 31228891,
  "lat": 52.2207337,
  "lon": 5.9985234,
  "tags": {
    "addr:city": "Apeldoorn",
    "addr:housenumber": "396",
    "addr:postcode": "7322NW",
    "addr:street": "Laan van Zevenhuizen",
    "amenity": "fuel",
    "brand": "Firezone",
    "brand:wikidata": "Q14628080",
    "brand:wikipedia": "nl:Firezone",
    "name": "Firezone",
    "source": "BAG",
    "source:date": "2014-02-11"
  }
},
{
  "type": "node",
  "id": 31386012,
  "lat": 52.1895047,
  "lon": 4.4200250,
  "tags": {
    "amenity": "fuel",
    "name": "Shell",
    "name:nl": "Shell",
    "operator": "Shell"
  }
},
{
  "type": "node",
  "id": 32535642,
  "lat": 51.4793131,
  "lon": 5.5502445,
  "tags": {
    "amenity": "fuel",
    "created_by": "JOSM",
    "name": "Kerkhoff's"
  }
},
{
  "type": "node",
  "id": 33228448,
  "lat": 52.1803420,
  "lon": 6.9138258,
  "tags": {
    "amenity": "fuel",
    "name": "Avia"
  }
},
{
  "type": "node",
  "id": 34467814,
  "lat": 51.9508139,
  "lon": 4.8505661,
  "tags": {
    "amenity": "fuel",
    "brand": "Shell",
    "brand:wikidata": "Q154950",
    "brand:wikipedia": "en:Royal Dutch Shell",
    "name": "Shell",
    "operator": "Shell"
  }
},
{
  "type": "node",
  "id": 42014324,
  "lat": 50.8752309,
  "lon": 5.9757516,
  "tags": {
    "amenity": "fuel",
    "brand": "Esso",
    "brand:wikidata": "Q867662",
    "brand:wikipedia": "en:Esso",
    "name": "Esso"
  }
},
{
  "type": "node",
  "id": 42291127,
  "lat": 51.2776793,
  "lon": 5.7432504,
  "tags": {
    "amenity": "fuel",
    "brand": "Total",
    "brand:wikidata": "Q154037",
    "name": "Total Express Nederweert-Rosveld",
    "opening_hours": "24/7",
    "operator": "Total"
  }
},
{
  "type": "node",
  "id": 42361853,
  "lat": 51.3223879,
  "lon": 5.5937955,
  "tags": {
    "addr:city": "Maarheeze",
    "addr:housenumber": "2",
    "addr:postcode": "6026RR",
    "addr:street": "Rijksweg A2",
    "amenity": "fuel",
    "atmotorway": "yes",
    "compressed_air": "yes",
    "name": "Total A2 't Haasje",
    "source": "BAG",
    "source:date": "2014-03-24"
  }
},
{
  "type": "node",
  "id": 42364741,
  "lat": 51.3248991,
  "lon": 5.5919878,
  "tags": {
    "addr:city": "Maarheeze",
    "addr:housenumber": "1",
    "addr:postcode": "6026RR",
    "addr:street": "Rijksweg A2",
    "amenity": "fuel",
    "atmotorway": "yes",
    "compressed_air": "yes",
    "name": "Esso A2 Groote Bleek",
    "source": "BAG",
    "source:date": "2014-03-24"
  }
},
{
  "type": "node",
  "id": 42371600,
  "lat": 51.3276219,
  "lon": 6.0019539,
  "tags": {
    "addr:city": "Helden",
    "addr:country": "NL",
    "addr:housenumber": "87",
    "addr:postcode": "5988NS",
    "addr:street": "Molenstraat",
    "amenity": "fuel",
    "fuel:diesel": "yes",
    "fuel:lpg": "yes",
    "fuel:octane_95": "yes",
    "fuel:octane_98": "yes",
    "name": "Mertens",
    "opening_hours": "Mo-Fr 07:00-20:00; Sa 07:30-20:00; Su 09:00-20:00",
    "operator": "Avia"
  }
},
{
  "type": "node",
  "id": 42502061,
  "lat": 51.3781372,
  "lon": 6.0009082,
  "tags": {
    "addr:city": "Maasbree",
    "addr:housenumber": "8",
    "addr:postcode": "5993RM",
    "addr:street": "A67",
    "amenity": "fuel",
    "atmotorway": "yes",
    "capacity": "12",
    "fuel:HGV_diesel": "yes",
    "fuel:adblue": "yes",
    "fuel:diesel": "yes",
    "fuel:lpg": "yes",
    "fuel:octane_95": "yes",
    "name": "Shell A67 Deersels",
    "source": "BAG",
    "source:date": "2014-08-06"
  }
},
{
  "type": "node",
  "id": 42529681,
  "lat": 51.3937450,
  "lon": 6.1837053,
  "tags": {
    "addr:city": "Venlo",
    "addr:housenumber": "25",
    "addr:postcode": "5916RP",
    "addr:street": "Europaweg",
    "amenity": "fuel",
    "atmotorway": "yes",
    "brand": "Gulf",
    "brand:wikidata": "Q5617505",
    "name": "Gulf A67 Zwartewater",
    "opening_hours": "24/7",
    "operator": "Gulf",
    "payment:uta": "yes",
    "source": "BAG",
    "source:date": "2014-06-20"
  }
},
{
  "type": "node",
  "id": 42534245,
  "lat": 51.3960433,
  "lon": 6.1611275,
  "tags": {
    "addr:city": "Venlo",
    "addr:housenumber": "21",
    "addr:postcode": "5916RP",
    "addr:street": "Europaweg",
    "amenity": "fuel",
    "atmotorway": "yes",
    "name": "BP A67 Reunen",
    "source": "BAG",
    "source:date": "2014-05-27"
  }
},
{
  "type": "node",
  "id": 42586835,
  "lat": 51.4227448,
  "lon": 4.0966338,
  "tags": {
    "addr:city": "Krabbendijke",
    "addr:housenumber": "1",
    "addr:postcode": "4413RX",
    "addr:street": "Vliete",
    "amenity": "fuel",
    "atmotorway": "yes",
    "brand": "BP",
    "brand:wikidata": "Q152057",
    "brand:wikipedia": "en:BP",
    "name": "BP A58 Vliete",
    "opening_hours": "Mo-Su 06:00-23:00",
    "operator": "BP",
    "source": "BAG",
    "source:date": "2014-05-07"
  }
},
{
  "type": "node",
  "id": 42591292,
  "lat": 51.4242759,
  "lon": 5.5059926,
  "tags": {
    "amenity": "fuel",
    "brand": "Tamoil",
    "brand:wikidata": "Q706793",
    "brand:wikipedia": "en:Tamoil",
    "name": "Tamoil",
    "source": "AND",
    "wheelchair": "limited"
  }
},
{
  "type": "node",
  "id": 42596292,
  "lat": 51.4255390,
  "lon": 4.0875834,
  "tags": {
    "addr:city": "Krabbendijke",
    "addr:housenumber": "1",
    "addr:postcode": "4413RZ",
    "addr:street": "Voetpomp",
    "amenity": "fuel",
    "atmotorway": "yes",
    "brand": "BP",
    "brand:wikidata": "Q152057",
    "brand:wikipedia": "en:BP",
    "name": "BP A58 Voetpomp",
    "operator": "BP",
    "source": "BAG",
    "source:date": "2014-05-07"
  }
},
{
  "type": "node",
  "id": 42671310,
  "lat": 51.4546476,
  "lon": 5.7946562,
  "tags": {
    "amenity": "fuel",
    "source": "AND"
  }
},
{
  "type": "node",
  "id": 42718034,
  "lat": 51.4716325,
  "lon": 5.6779059,
  "tags": {
    "addr:city": "Helmond",
    "addr:country": "NL",
    "addr:housenumber": "11",
    "addr:postcode": "5705BX",
    "addr:street": "Lage Dijk",
    "amenity": "fuel",
    "brand": "Tinq",
    "brand:wikidata": "Q2132028",
    "brand:wikipedia": "nl:Tinq",
    "name": "Tinq"
  }
},
{
  "type": "node",
  "id": 42727489,
  "lat": 51.4751165,
  "lon": 5.6353272,
  "tags": {
    "addr:city": "Helmond",
    "addr:housenumber": "149",
    "addr:postcode": "5707CL",
    "addr:street": "Europaweg",
    "amenity": "fuel",
    "brand": "Esso",
    "brand:wikidata": "Q867662",
    "brand:wikipedia": "en:Esso",
    "name": "Esso",
    "operator": "Esso",
    "source": "BAG",
    "source:date": "2014-06-06"
  }
},
{
  "type": "node",
  "id": 42728631,
  "lat": 51.4753347,
  "lon": 5.6345035,
  "tags": {
    "addr:city": "Helmond",
    "addr:housenumber": "150D",
    "addr:postcode": "5707CL",
    "addr:street": "Europaweg",
    "amenity": "fuel",
    "brand": "Esso",
    "brand:wikidata": "Q867662",
    "brand:wikipedia": "en:Esso",
    "name": "Esso",
    "operator": "Esso",
    "source": "BAG",
    "source:date": "2014-06-03"
  }
},
{
  "type": "node",
  "id": 42741601,
  "lat": 51.4765411,
  "lon": 5.4881793,
  "tags": {
    "amenity": "fuel",
    "brand": "Shell",
    "brand:wikidata": "Q110716465",
    "fuel:diesel": "yes",
    "fuel:octane_95": "yes",
    "name": "Shell Mabem Kennedylaan West",
    "opening_hours": "24/7",
    "operator": "Shell",
    "source": "AND"
  }
},
{
  "type": "node",
  "id": 42743561,
  "lat": 51.4793304,
  "lon": 5.4894789,
  "tags": {
    "amenity": "fuel",
    "brand": "Shell",
    "brand:wikidata": "Q110716465",
    "brand:wikipedia": "en:Royal Dutch Shell",
    "fuel:diesel": "yes",
    "fuel:octane_95": "yes",
    "name": "Shell",
    "operator": "Shell",
    "source": "AND"
  }
},
{
  "type": "node",
  "id": 42818852,
  "lat": 51.5009706,
  "lon": 5.4951006,
  "tags": {
    "addr:city": "Son en Breugel",
    "addr:housenumber": "23",
    "addr:postcode": "5691NG",
    "addr:street": "Eindhovenseweg",
    "amenity": "fuel",
    "compressed_air": "yes",
    "fuel:diesel": "yes",
    "fuel:lpg": "yes",
    "fuel:octane_95": "yes",
    "fuel:octane_98": "yes",
    "name": "OK Son Oost",
    "opening_hours": "Mo-Fr 07:00-23:00; Sa 07:00-22:00; Su 08:00-22:00",
    "operator": "OK",
    "self_service": "yes",
    "source": "BAG",
    "source:date": "2014-03-24",
    "website": "https://ok.nl/tankstations/ok-son-oost/"
  }
},
{
  "type": "node",
  "id": 42971097,
  "lat": 51.5424132,
  "lon": 5.1584338,
  "tags": {
    "addr:city": "Moergestel",
    "addr:housenumber": "3",
    "addr:postcode": "5066PZ",
    "addr:street": "Rijksweg A58",
    "amenity": "fuel",
    "atmotorway": "yes",
    "name": "Total A58 Kerkeind",
    "operator": "Total",
    "source": "BAG",
    "source:date": "2014-03-24"
  }
},
{
  "type": "node",
  "id": 43226240,
  "lat": 51.6109585,
  "lon": 4.7536949,
  "tags": {
    "addr:city": "Breda",
    "addr:country": "NL",
    "addr:housenumber": "5",
    "addr:postcode": "4824EG",
    "addr:street": "Emerparklaan",
    "amenity": "fuel",
    "brand": "BP",
    "name": "BP Emerparklaan"
  }
},
{
  "type": "node",
  "id": 43395885,
  "lat": 51.6629412,
  "lon": 4.8555687,
  "tags": {
    "addr:city": "Oosterhout",
    "addr:country": "NL",
    "addr:housenumber": "3",
    "addr:postcode": "4905BS",
    "addr:street": "Damweg",
    "amenity": "fuel",
    "brand": "Shell Express",
    "brand:wikidata": "Q2289188",
    "brand:wikipedia": "nl:Shell Express",
    "name": "Shell Express",
    "opening_hours": "24/7",
    "operator": "Shell",
    "wheelchair": "yes"
  }
},
{
  "type": "node",
  "id": 43471496,
  "lat": 51.6762444,
  "lon": 4.8273376,
  "tags": {
    "addr:city": "Den Hout",
    "addr:housenumber": "5",
    "addr:postcode": "4911BV",
    "addr:street": "Rijksweg A59",
    "amenity": "fuel",
    "atmotorway": "yes",
    "brand": "Texaco",
    "name": "Texaco A59 Steelhoven",
    "opening_hours": "24/7",
    "source": "BAG",
    "source:date": "2014-05-07"
  }
},
{
  "type": "node",
  "id": 43545307,
  "lat": 51.6943447,
  "lon": 5.2725915,
  "tags": {
    "amenity": "fuel",
    "name": "Texaco",
    "source": "AND"
  }
},
{
  "type": "node",
  "id": 43647897,
  "lat": 51.7240209,
  "lon": 5.8816891,
  "tags": {
    "amenity": "fuel",
    "maxheight": "3.8",
    "name": "Total",
    "website": "http://zandcuijk.nl/",
    "wheelchair": "yes"
  }
},
{
  "type": "node",
  "id": 43651329,
  "lat": 51.7237331,
  "lon": 5.6693382,
  "tags": {
    "amenity": "fuel",
    "name": "Argos Schayk"
  }
},
{
  "type": "node",
  "id": 43782118,
  "lat": 51.7645845,
  "lon": 5.5458972,
  "tags": {
    "addr:city": "Oss",
    "addr:country": "NL",
    "addr:housenumber": "8",
    "addr:street": "Kantsingel",
    "amenity": "fuel",
    "name": "Tinq"
  }
},
{
  "type": "node",
  "id": 43927601,
  "lat": 51.8134250,
  "lon": 4.6471057,
  "tags": {
    "addr:city": "Zwijndrecht",
    "addr:country": "NL",
    "addr:housenumber": "650",
    "addr:postcode": "3331LK",
    "addr:street": "Ringdijk",
    "amenity": "fuel",
    "brand": "Haan",
    "brand:wikidata": "Q92553521",
    "name": "Haan",
    "operator": "De Haan Minerale Oliën BV",
    "shop": "kiosk"
  }
},
{
  "type": "node",
  "id": 44020915,
  "lat": 51.8324843,
  "lon": 4.8830094,
  "tags": {
    "addr:city": "Hardinxveld-Giessendam",
    "addr:housenumber": "1",
    "addr:postcode": "3371GX",
    "addr:street": "Den Bout",
    "amenity": "fuel",
    "atmotorway": "yes",
    "brand": "Esso",
    "name": "Esso A15 Den Bout",
    "opening_hours": "Mo-Su 00:00-23:59",
    "source": "BAG",
    "source:date": "2014-03-24"
  }
},
{
  "type": "node",
  "id": 44082895,
  "lat": 51.8501974,
  "lon": 4.6800968,
  "tags": {
    "addr:city": "Alblasserdam",
    "addr:housenumber": "1",
    "addr:postcode": "2952BN",
    "addr:street": "Rijksweg A15",
    "amenity": "fuel",
    "atmotorway": "yes",
    "brand": "Shell",
    "name": "Shell A15 De Noord",
    "source": "BAG",
    "source:date": "2014-05-07"
  }
},
{
  "type": "node",
  "id": 44368513,
  "lat": 51.9141633,
  "lon": 4.5290949,
  "tags": {
    "amenity": "fuel",
    "brand": "Esso",
    "brand:wikidata": "Q867662",
    "brand:wikipedia": "en:Esso",
    "name": "Esso"
  }
},
{
  "type": "node",
  "id": 44407217,
  "lat": 51.9219463,
  "lon": 5.6019024,
  "tags": {
    "addr:city": "Ochten",
    "addr:housenumber": "1",
    "addr:postcode": "4051CZ",
    "addr:street": "Rijksweg",
    "amenity": "fuel",
    "atmotorway": "yes",
    "brand": "Esso",
    "brand:wikidata": "Q867662",
    "brand:wikipedia": "en:Esso",
    "name": "Esso A15 Overbroek",
    "source": "BAG",
    "source:date": "2014-08-15"
  }
},
{
  "type": "node",
  "id": 44440166,
  "lat": 51.9286202,
  "lon": 4.3689063,
  "tags": {
    "amenity": "fuel",
    "brand": "Berkman",
    "fuel:diesel": "yes",
    "fuel:e10": "yes",
    "fuel:octane_95": "yes",
    "name": "Laan van Bol'Es",
    "opening_hours": "24/7",
    "shop": "yes",
    "source": "AND"
  }
},
{
  "type": "node",
  "id": 44547532,
  "lat": 51.9487912,
  "lon": 5.2235266,
  "tags": {
    "amenity": "fuel",
    "brand": "Esso",
    "brand:wikidata": "Q867662",
    "brand:wikipedia": "en:Esso",
    "name": "Esso",
    "source": "AND"
  }
},
{
  "type": "node",
  "id": 44555699,
  "lat": 51.9504882,
  "lon": 4.2299371,
  "tags": {
    "addr:street": "Coldenhovelaan",
    "amenity": "fuel",
    "name": "Shell"
  }
},
{
  "type": "node",
  "id": 44557197,
  "lat": 51.9508100,
  "lon": 5.7567000,
  "tags": {
    "addr:city": "Heteren",
    "addr:housenumber": "5",
    "addr:postcode": "6666LD",
    "addr:street": "Polderstraat",
    "amenity": "fuel",
    "brand": "Texaco",
    "brand:wikidata": "Q775060",
    "brand:wikipedia": "en:Texaco",
    "fuel:diesel": "yes",
    "fuel:e10": "yes",
    "fuel:octane_98": "yes",
    "name": "Texaco Heteren",
    "opening_hours": "24/7",
    "self_service": "yes"
  }
},
{
  "type": "node",
  "id": 44580605,
  "lat": 51.9555287,
  "lon": 4.5151308,
  "tags": {
    "addr:street": "Molenlaan",
    "amenity": "fuel",
    "brand": "Esso",
    "brand:wikidata": "Q867662",
    "brand:wikipedia": "en:Esso",
    "name": "Molenlaan"
  }
},
{
  "type": "node",
  "id": 44675239,
  "lat": 51.9745287,
  "lon": 5.9588898,
  "tags": {
    "addr:city": "Arnhem",
    "addr:country": "NL",
    "addr:housenumber": "15",
    "addr:postcode": "6825LG",
    "addr:street": "IJsseloordweg",
    "amenity": "fuel",
    "brand": "Total",
    "brand:wikidata": "Q154037",
    "brand:wikipedia": "fr:Total (entreprise)",
    "ethanol": "no",
    "fuel:biodiesel": "no",
    "fuel:diesel": "yes",
    "fuel:lpg": "yes",
    "fuel:octane_100": "no",
    "fuel:octane_95": "yes",
    "fuel:octane_98": "no",
    "name": "Total",
    "operator": "Total",
    "source": "BAG",
    "source:date": "2014-02-11"
  }
},
{
  "type": "node",
  "id": 44739203,
  "lat": 51.9876112,
  "lon": 4.3555009,
  "tags": {
    "addr:city": "Delft",
    "addr:country": "NL",
    "addr:housenumber": "10",
    "addr:street": "Kruithuisweg",
    "amenity": "fuel",
    "brand": "Total",
    "brand:wikidata": "Q154037",
    "brand:wikipedia": "fr:Total (entreprise)",
    "name": "Total"
  }
},
{
  "type": "node",
  "id": 44988739,
  "lat": 52.0423901,
  "lon": 4.2942621,
  "tags": {
    "addr:street": "Sammersweg",
    "amenity": "fuel",
    "brand": "Shell",
    "name": "Shell",
    "source": "AND"
  }
},
{
  "type": "node",
  "id": 45028967,
  "lat": 52.0507600,
  "lon": 4.5160960,
  "tags": {
    "addr:city": "Zoetermeer",
    "addr:country": "NL",
    "addr:housenumber": "99",
    "addr:street": "Oostweg",
    "amenity": "fuel",
    "name": "Esso"
  }
},
{
  "type": "node",
  "id": 45074670,
  "lat": 52.0621228,
  "lon": 4.3152135,
  "tags": {
    "addr:city": "'s-Gravenhage",
    "addr:housenumber": "300",
    "addr:postcode": "2521BW",
    "addr:street": "Calandstraat",
    "amenity": "fuel",
    "brand": "Total",
    "brand:wikidata": "Q154037",
    "brand:wikipedia": "fr:Total (entreprise)",
    "name": "Total",
    "source": "BAG",
    "source:date": "2014-02-11"
  }
},
{
  "type": "node",
  "id": 45097793,
  "lat": 52.0661478,
  "lon": 4.7417846,
  "tags": {
    "addr:city": "Bodegraven",
    "addr:housenumber": "1",
    "addr:postcode": "2411ZZ",
    "addr:street": "Rijksweg A12",
    "amenity": "fuel",
    "atmotorway": "yes",
    "fuel:lpg": "yes",
    "name": "Total A12 Bodegraven",
    "source": "BAG",
    "source:date": "2016-11-15"
  }
},
{
  "type": "node",
  "id": 45225507,
  "lat": 52.0960745,
  "lon": 4.5914189,
  "tags": {
    "addr:city": "Hazerswoude-Dorp",
    "addr:country": "NL",
    "addr:housenumber": "1",
    "addr:postcode": "2391EZ",
    "addr:street": "Provincialeweg",
    "amenity": "fuel",
    "name": "Sakko",
    "source": "BAG",
    "source:date": "2014-02-11"
  }
},
{
  "type": "node",
  "id": 45225689,
  "lat": 52.0961318,
  "lon": 4.3387947,
  "tags": {
    "addr:city": "'s-Gravenhage",
    "addr:housenumber": "280",
    "addr:postcode": "2596BJ",
    "addr:street": "Benoordenhoutseweg",
    "amenity": "fuel",
    "brand": "Shell Express",
    "brand:wikidata": "Q2289188",
    "brand:wikipedia": "nl:Shell Express",
    "fuel:diesel": "yes",
    "fuel:octane_95": "yes",
    "fuel:octane_98": "yes",
    "name": "Shell Express Benoordenhoutseweg 280",
    "source": "BAG",
    "source:date": "2014-02-11"
  }
},
{
  "type": "node",
  "id": 45523576,
  "lat": 52.1626104,
  "lon": 4.5309517,
  "tags": {
    "addr:city": "Leiderdorp",
    "addr:housenumber": "2",
    "addr:postcode": "2353MA",
    "addr:street": "Engelendaal",
    "amenity": "fuel",
    "brand": "BP",
    "brand:wikidata": "Q152057",
    "brand:wikipedia": "en:BP",
    "name": "BP Express"
  }
},
{
  "type": "node",
  "id": 45728527,
  "lat": 52.2127163,
  "lon": 6.9049860,
  "tags": {
    "amenity": "fuel",
    "brand": "Avia",
    "fuel:e10": "no",
    "mapillary": "280620473891268",
    "name": "Avia",
    "operator": "Avia",
    "source": "AND",
    "survey:date": "2021-09-16"
  }
},
{
  "type": "node",
  "id": 45900466,
  "lat": 52.2546208,
  "lon": 5.2450806,
  "tags": {
    "amenity": "fuel",
    "brand": "Esso",
    "brand:wikidata": "Q867662",
    "name": "Tankstation Zanoli"
  }
},
{
  "type": "node",
  "id": 45959798,
  "lat": 52.2689800,
  "lon": 4.5557700,
  "tags": {
    "amenity": "fuel",
    "name": "N208",
    "source": "AND"
  }
},
{
  "type": "node",
  "id": 46378325,
  "lat": 52.3699122,
  "lon": 4.8769577,
  "tags": {
    "addr:city": "Amsterdam",
    "addr:housenumber": "250",
    "addr:postcode": "1016TL",
    "addr:street": "Marnixstraat",
    "amenity": "fuel",
    "brand": "Esso",
    "brand:wikidata": "Q867662",
    "brand:wikipedia": "en:Esso",
    "fuel:biodiesel": "no",
    "fuel:diesel": "yes",
    "fuel:ethanol": "no",
    "fuel:lpg": "yes",
    "name": "Esso Marnixstraat",
    "operator": "EFR SERVICES NETHERLANDS B.V.",
    "source": "AND"
  }
},
{
  "type": "node",
  "id": 46440463,
  "lat": 52.3831104,
  "lon": 4.6820959,
  "tags": {
    "addr:city": "Haarlem",
    "addr:country": "NL",
    "addr:housenumber": "288",
    "addr:postcode": "2033AA",
    "addr:street": "Amsterdamsevaart",
    "amenity": "fuel",
    "name": "Total De Liede",
    "source": "AND"
  }
},
{
  "type": "node",
  "id": 46512377,
  "lat": 52.4028411,
  "lon": 6.7894542,
  "tags": {
    "addr:city": "Tubbergen",
    "addr:housenumber": "33a",
    "addr:postcode": "7651AA",
    "addr:street": "L. von Bönninghausenstraat",
    "amenity": "fuel",
    "brand": "Esso Express",
    "brand:wikidata": "Q2350336",
    "brand:wikipedia": "nl:Esso Express",
    "fuel:diesel": "yes",
    "fuel:octane_95": "yes",
    "fuel:octane_98": "yes",
    "name": "Esso Express",
    "operator": "EG Group",
    "self_service": "yes",
    "website": "https://www.esso.nl/nl-nl/find-station/tubbergen--esso-100360340"
  }
},
{
  "type": "node",
  "id": 46600128,
  "lat": 52.4333290,
  "lon": 6.0683524,
  "tags": {
    "addr:city": "Wapenveld",
    "addr:housenumber": "42",
    "addr:postcode": "8191JX",
    "addr:street": "Groteweg",
    "amenity": "fuel",
    "brand": "Tango",
    "brand:wikidata": "Q2423920",
    "fuel:diesel": "yes",
    "fuel:octane_95": "yes",
    "name": "Tango Wapenveld",
    "opening_hours": "24/7",
    "payment:dkv": "yes",
    "payment:ipay": "yes",
    "payment:maestro": "yes",
    "payment:mastercard": "yes",
    "payment:multitankcard": "yes",
    "payment:pin": "yes",
    "payment:q8_liberty": "yes",
    "payment:travelcard": "yes",
    "payment:visa": "yes",
    "payment:vpay": "yes",
    "payment:xximo": "yes",
    "phone": "+31 70 315 2500",
    "self_service": "yes",
    "website": "https://www.tango.nl/stations/Tango-Wapenveld"
  }
},
{
  "type": "node",
  "id": 46614584,
  "lat": 52.4383252,
  "lon": 4.8443685,
  "tags": {
    "amenity": "fuel",
    "name": "Smitsven",
    "source": "AND"
  }
},
{
  "type": "node",
  "id": 47084303,
  "lat": 52.6471326,
  "lon": 4.7926933,
  "tags": {
    "amenity": "fuel",
    "brand": "Shell",
    "name": "Shell"
  }
},
{
  "type": "node",
  "id": 47603222,
  "lat": 52.9073338,
  "lon": 5.0305479,
  "tags": {
    "addr:city": "Wieringerwerf",
    "addr:postcode": "1771ML",
    "addr:street": "A7 --> Zaandam",
    "amenity": "fuel",
    "atmotorway": "yes",
    "brand": "Esso",
    "brand:wikidata": "Q867662",
    "brand:wikipedia": "en:Esso",
    "fuel:diesel": "yes",
    "fuel:lpg": "yes",
    "fuel:octane_95": "yes",
    "motorway_direction": "194",
    "name": "Esso",
    "operator": "EG Group",
    "self_service": "yes",
    "source": "AND",
    "website": "https://www.esso.nl/nl-nl/find-station/wieringerwerf--esso-100359778",
    "wheelchair": "yes"
  }
},
{
  "type": "node",
  "id": 47647245,
  "lat": 52.9420839,
  "lon": 4.7733789,
  "tags": {
    "addr:city": "Den Helder",
    "addr:country": "NL",
    "addr:housenumber": "10",
    "addr:street": "Ravelijnweg",
    "amenity": "fuel",
    "brand": "Shell Express",
    "brand:wikidata": "Q2289188",
    "brand:wikipedia": "nl:Shell Express",
    "name": "Shell Express",
    "wheelchair": "yes"
  }
},
{
  "type": "node",
  "id": 47803367,
  "lat": 53.0384009,
  "lon": 5.8487658,
  "tags": {
    "addr:street": "A32 --> Heerenveen",
    "amenity": "fuel",
    "atmotorway": "yes",
    "compressed_air": "yes",
    "fuel:diesel": "yes",
    "fuel:lpg": "yes",
    "fuel:octane_95": "yes",
    "fuel:octane_98": "yes",
    "name": "Tamoil A32 Smarpot",
    "shop": "kiosk"
  }
},
{
  "type": "node",
  "id": 47925194,
  "lat": 53.0921307,
  "lon": 5.4280647,
  "tags": {
    "addr:street": "Rijksweg A7",
    "amenity": "fuel",
    "atmotorway": "yes",
    "name": "Shell A7 Wildinghe",
    "operator": "Shell"
  }
},
{
  "type": "node",
  "id": 48035139,
  "lat": 53.1435094,
  "lon": 6.0484154,
  "tags": {
    "addr:street": "N31 --> Leeuwarden",
    "amenity": "fuel",
    "name": "OK De Kreilen"
  }
},
{
  "type": "node",
  "id": 48158449,
  "lat": 53.1944801,
  "lon": 6.7006792,
  "tags": {
    "addr:city": "Scharmer",
    "addr:housenumber": "2",
    "addr:postcode": "9616TN",
    "addr:street": "Rijksweg A7",
    "amenity": "fuel",
    "atmotorway": "yes",
    "name": "Shell A7 Dikke Linde",
    "source": "BAG",
    "source:date": "2014-03-24"
  }
},
{
  "type": "node",
  "id": 48248135,
  "lat": 53.2354604,
  "lon": 6.5394542,
  "tags": {
    "addr:city": "Groningen",
    "addr:housenumber": "389",
    "addr:postcode": "9742BK",
    "addr:street": "Zonnelaan",
    "amenity": "fuel",
    "name": "Shell Zonnelaan",
    "operator": "Shell",
    "shop": "yes",
    "source": "BAG",
    "source:date": "2014-03-24",
    "wheelchair": "limited"
  }
},
{
  "type": "node",
  "id": 59607514,
  "lat": 52.1705710,
  "lon": 4.4968605,
  "tags": {
    "amenity": "fuel",
    "brand": "Shell",
    "brand:wikidata": "Q154950",
    "brand:wikipedia": "en:Royal Dutch Shell",
    "car_wash": "no",
    "fuel:diesel": "yes",
    "name": "Shell",
    "opening_hours": "06:00-23:00",
    "operator": "Shell",
    "self_service": "yes",
    "toilets": "no"
  }
},
{
  "type": "node",
  "id": 60211377,
  "lat": 50.7995241,
  "lon": 5.7634245,
  "tags": {
    "amenity": "fuel",
    "name": "Nelissen"
  }
},
{
  "type": "node",
  "id": 60502467,
  "lat": 52.4558203,
  "lon": 5.5302665,
  "tags": {
    "addr:city": "Lelystad",
    "addr:country": "NL",
    "addr:housenumber": "1",
    "addr:postcode": "8218PG",
    "addr:street": "Roadrunnerweg",
    "amenity": "fuel",
    "brand": "Tango",
    "brand:wikidata": "Q2423920",
    "fuel:diesel": "yes",
    "fuel:octane_95": "yes",
    "fuel:octane_98": "yes",
    "name": "Tango Lelystad Roadrunnerweg",
    "opening_hours": "24/7",
    "operator": "Tango",
    "payment:dkv": "yes",
    "payment:ipay": "yes",
    "payment:maestro": "yes",
    "payment:mastercard": "yes",
    "payment:multitankcard": "yes",
    "payment:pin": "yes",
    "payment:q8_liberty": "yes",
    "payment:travelcard": "yes",
    "payment:visa": "yes",
    "payment:vpay": "yes",
    "payment:xximo": "yes",
    "phone": "+31 70 315 2500",
    "self_service": "yes",
    "shop": "no",
    "website": "https://www.tango.nl/stations/Tango-Lelystad-Roadrunnerweg"
  }
},
{
  "type": "node",
  "id": 60620332,
  "lat": 52.5203025,
  "lon": 5.4818497,
  "tags": {
    "amenity": "fuel",
    "name": "Shell",
    "opening_hours": "Mo-Fr 07:00-22:30; Sa 07:30-22:30; Su 09:00-22:30",
    "operator": "Shell",
    "shop": "kiosk"
  }
},
{
  "type": "node",
  "id": 60806379,
  "lat": 51.4714189,
  "lon": 5.4358030,
  "tags": {
    "amenity": "fuel",
    "brand": "Shell",
    "brand:wikidata": "Q110716465",
    "fuel:diesel": "yes",
    "fuel:lpg": "yes",
    "fuel:octane_95": "yes",
    "name": "Shell",
    "operator": "Shell"
  }
},
{
  "type": "node",
  "id": 60937411,
  "lat": 52.4124399,
  "lon": 6.6004686,
  "tags": {
    "amenity": "fuel",
    "name": "Weitzelpoort"
  }
},
{
  "type": "node",
  "id": 75346630,
  "lat": 52.4704391,
  "lon": 5.9652682,
  "tags": {
    "addr:city": "Wezep",
    "addr:country": "NL",
    "addr:housenumber": "443",
    "addr:street": "Zuiderzeestraatweg",
    "amenity": "fuel",
    "brand": "Tinq",
    "brand:wikidata": "Q2132028",
    "brand:wikipedia": "nl:Tinq",
    "name": "Tinq"
  }
},
{
  "type": "node",
  "id": 81409420,
  "lat": 52.0008626,
  "lon": 4.3508340,
  "tags": {
    "addr:city": "Delft",
    "addr:country": "NL",
    "addr:housenumber": "119",
    "addr:postcode": "2624AD",
    "addr:street": "Westlandseweg",
    "amenity": "fuel",
    "name": "Super Tank",
    "opening_hours": "24/7",
    "payment:coins": "no",
    "payment:notes": "no",
    "self_service": "yes",
    "source": "BAG;survey",
    "source:date": "2013-11-26",
    "survey:date": "2021-01-23"
  }
},
{
  "type": "node",
  "id": 91332270,
  "lat": 51.4165606,
  "lon": 5.5734358,
  "tags": {
    "amenity": "fuel",
    "name": "BP De Coevering",
    "operator": "BP"
  }
},
{
  "type": "node",
  "id": 94583369,
  "lat": 51.6807215,
  "lon": 5.1347650,
  "tags": {
    "amenity": "fuel",
    "name": "Total",
    "operator": "Shell",
    "source": "knowledge"
  }
},
{
  "type": "node",
  "id": 94587484,
  "lat": 51.6895678,
  "lon": 5.1463114,
  "tags": {
    "amenity": "fuel",
    "name": "Texaco De Heikant"
  }
},
{
  "type": "node",
  "id": 94588555,
  "lat": 51.6955440,
  "lon": 5.1471872,
  "tags": {
    "amenity": "fuel",
    "name": "Shell",
    "operator": "Shell",
    "source": "knowledge"
  }
},
{
  "type": "node",
  "id": 94592564,
  "lat": 51.5044210,
  "lon": 5.6452778,
  "tags": {
    "amenity": "fuel",
    "brand": "Tamoil",
    "brand:wikidata": "Q706793",
    "brand:wikipedia": "en:Tamoil",
    "name": "Tamoil"
  }
},
{
  "type": "node",
  "id": 95702650,
  "lat": 51.9313309,
  "lon": 4.7825694,
  "tags": {
    "amenity": "fuel",
    "name": "Autofood Botter",
    "operator": "Autofood"
  }
},
{
  "type": "node",
  "id": 96064515,
  "lat": 51.6541158,
  "lon": 3.9170981,
  "tags": {
    "amenity": "fuel",
    "brand": "Texaco",
    "brand:wikidata": "Q775060",
    "brand:wikipedia": "en:Texaco",
    "name": "Texaco Zierikzee",
    "operator": "EFR SERVICES NETHERLANDS B.V.",
    "source": "AND"
  }
},
{
  "type": "node",
  "id": 97682837,
  "lat": 53.0397319,
  "lon": 5.6671299,
  "tags": {
    "amenity": "fuel",
    "brand": "Shell",
    "brand:wikidata": "Q110716465",
    "fuel:diesel": "yes",
    "fuel:lpg": "yes",
    "fuel:octane_95": "yes",
    "fuel:octane_98": "yes",
    "name": "Shell",
    "operator": "Shell"
  }
},
{
  "type": "node",
  "id": 98868989,
  "lat": 51.9240184,
  "lon": 4.3456685,
  "tags": {
    "amenity": "fuel",
    "brand": "Shell",
    "brand:wikidata": "Q154950",
    "brand:wikipedia": "nl:Royal Dutch Shell",
    "name": "Shell Holysingel"
  }
},
{
  "type": "node",
  "id": 99325876,
  "lat": 52.1959757,
  "lon": 5.9387088,
  "tags": {
    "amenity": "fuel",
    "brand": "Zovi Oils",
    "operator": "Zwarteveen Olieën"
  }
},
{
  "type": "node",
  "id": 104659002,
  "lat": 51.7508253,
  "lon": 4.1598024,
  "tags": {
    "amenity": "fuel",
    "name": "Shell",
    "operator": "Shell"
  }
},
{
  "type": "node",
  "id": 104673172,
  "lat": 51.7497362,
  "lon": 4.1210440,
  "tags": {
    "amenity": "fuel",
    "brand": "BP",
    "brand:wikidata": "Q152057",
    "name": "BP De Watertoren",
    "operator": "BP"
  }
},
{
  "type": "node",
  "id": 118161878,
  "lat": 52.3440655,
  "lon": 4.8420644,
  "tags": {
    "addr:city": "Amsterdam",
    "addr:country": "NL",
    "addr:housenumber": "8",
    "addr:postcode": "1059CM",
    "addr:street": "Anthony Fokkerweg",
    "amenity": "fuel",
    "brand": "Shell",
    "brand:wikidata": "Q154950",
    "brand:wikipedia": "en:Royal Dutch Shell",
    "contact:phone": "+31206177018",
    "contact:website": "https://find.shell.com/nl/fuel/12661638-shell-station-hansa/nl_NL",
    "fuel:diesel": "yes",
    "fuel:octane_100": "yes",
    "fuel:octane_95": "yes",
    "fuel:octane_98": "yes",
    "name": "Hansa",
    "opening_hours": "24/7",
    "operator": "Shell",
    "payment:coins": "yes",
    "payment:maestro": "yes",
    "payment:notes": "yes"
  }
},
{
  "type": "node",
  "id": 130119157,
  "lat": 52.2114361,
  "lon": 5.9983311,
  "tags": {
    "amenity": "fuel",
    "brand": "Shell",
    "brand:wikidata": "Q110716465",
    "fuel:diesel": "yes",
    "mapillary": "315068177236423",
    "name": "Shell Zutphensestraat",
    "operator": "Shell",
    "survey:date": "2022-01-28"
  }
},
{
  "type": "node",
  "id": 135561576,
  "lat": 52.4631013,
  "lon": 6.5226076,
  "tags": {
    "addr:city": "Den Ham",
    "addr:country": "NL",
    "addr:housenumber": "23",
    "addr:street": "Vroomshoopseweg",
    "amenity": "fuel",
    "brand": "Tinq",
    "brand:wikidata": "Q2132028",
    "name": "Tinq"
  }
},
{
  "type": "node",
  "id": 135561581,
  "lat": 52.4611401,
  "lon": 6.5020314,
  "tags": {
    "amenity": "fuel",
    "name": "CAV Den Ham"
  }
},
{
  "type": "node",
  "id": 135561585,
  "lat": 52.4613183,
  "lon": 6.5012786,
  "tags": {
    "amenity": "fuel",
    "brand": "Total",
    "brand:wikidata": "Q154037",
    "brand:wikipedia": "fr:Total (entreprise)",
    "name": "Total",
    "operator": "Total"
  }
},
{
  "type": "node",
  "id": 135562903,
  "lat": 52.4648045,
  "lon": 6.4846712,
  "tags": {
    "amenity": "fuel",
    "name": "Avia",
    "operator": "Heikens"
  }
},
{
  "type": "node",
  "id": 135567601,
  "lat": 52.5110824,
  "lon": 6.4198444,
  "tags": {
    "amenity": "fuel",
    "brand": "Tamoil",
    "brand:wikidata": "Q706793",
    "mapillary": "130293789239251",
    "name": "Tamoil",
    "survey:date": "2021-07-11"
  }
},
{
  "type": "node",
  "id": 135567603,
  "lat": 52.5179508,
  "lon": 6.4244094,
  "tags": {
    "amenity": "fuel",
    "brand": "Shell",
    "brand:wikidata": "Q110716465",
    "brand:wikipedia": "en:Royal Dutch Shell",
    "name": "Shell",
    "operator": "Shell"
  }
},
{
  "type": "node",
  "id": 135572634,
  "lat": 52.7219002,
  "lon": 6.4677171,
  "tags": {
    "addr:city": "Hoogeveen",
    "addr:housenumber": "24",
    "addr:postcode": "7901EA",
    "addr:street": "Griendtsveenweg",
    "amenity": "fuel",
    "fuel:diesel": "yes",
    "fuel:lpg": "yes",
    "fuel:octane_95": "yes",
    "fuel:octane_98": "yes",
    "name": "Komas",
    "opening_hours": "24/7 \"PIN, contant beperkt\"",
    "source": "BAG",
    "source:date": "2014-05-07"
  }
},
{
  "type": "node",
  "id": 135572641,
  "lat": 52.7192572,
  "lon": 6.4675494,
  "tags": {
    "amenity": "fuel",
    "brand": "Shell",
    "brand:wikidata": "Q110716465",
    "brand:wikipedia": "en:Royal Dutch Shell",
    "compressed_air": "yes",
    "name": "Shell Klok",
    "operator": "Klok"
  }
},
{
  "type": "node",
  "id": 148575696,
  "lat": 52.3827964,
  "lon": 4.8707229,
  "tags": {
    "amenity": "fuel",
    "operator": "Gulf",
    "wheelchair": "limited"
  }
},
{
  "type": "node",
  "id": 148575706,
  "lat": 52.3840940,
  "lon": 4.8647585,
  "tags": {
    "amenity": "fuel",
    "name": "Shell van Slingelandtstraat",
    "operator": "Shell"
  }
},
{
  "type": "node",
  "id": 157022518,
  "lat": 51.6492350,
  "lon": 6.1094726,
  "tags": {
    "amenity": "fuel",
    "brand": "Esso",
    "fuel:lpg": "yes",
    "name": "Esso",
    "operator": "Esso",
    "wheelchair": "yes"
  }
},
{
  "type": "node",
  "id": 170839957,
  "lat": 53.4103277,
  "lon": 6.6773790,
  "tags": {
    "addr:city": "Uithuizen",
    "addr:housenumber": "9",
    "addr:postcode": "9981HJ",
    "addr:street": "Industrieweg",
    "amenity": "fuel",
    "brand": "Fieten Olie",
    "brand:wikidata": "Q98837500",
    "fuel:diesel": "yes",
    "fuel:octane_95": "yes",
    "name": "Fieten Olie",
    "opening_hours": "24/7",
    "operator": "Fieten Olie",
    "self_service": "yes",
    "website": "https://www.fieten.info/tankstations/uithuizen/",
    "wheelchair": "yes"
  }
},
{
  "type": "node",
  "id": 171047923,
  "lat": 52.9653771,
  "lon": 5.9413639,
  "tags": {
    "amenity": "fuel",
    "brand": "Shell Express",
    "brand:wikidata": "Q2289188",
    "name": "Shell Express"
  }
},
{
  "type": "node",
  "id": 178847438,
  "lat": 53.4095137,
  "lon": 6.6659999,
  "tags": {
    "addr:city": "Uithuizen",
    "addr:housenumber": "2",
    "addr:postcode": "9981AK",
    "addr:street": "Geraldadrift",
    "amenity": "fuel",
    "brand": "Tamoil",
    "brand:wikidata": "Q706793",
    "brand:wikipedia": "en:Tamoil",
    "fuel:cng": "yes",
    "fuel:diesel": "yes",
    "fuel:octane_95": "yes",
    "name": "Tamoil Express",
    "opening_hours": "24/7",
    "operator": "Tamoil",
    "self_service": "yes",
    "shop": "yes",
    "website": "https://tamoil.nl/tankstations",
    "wheelchair": "yes"
  }
},
{
  "type": "node",
  "id": 204964393,
  "lat": 51.4352923,
  "lon": 5.5153714,
  "tags": {
    "amenity": "fuel",
    "brand": "Tamoil",
    "brand:wikidata": "Q706793",
    "brand:wikipedia": "en:Tamoil",
    "name": "Tamoil"
  }
},
{
  "type": "node",
  "id": 207204356,
  "lat": 51.9222657,
  "lon": 4.4212068,
  "tags": {
    "amenity": "fuel",
    "brand": "BP",
    "brand:wikidata": "Q152057",
    "brand:wikipedia": "en:BP",
    "mapillary": "803652843602808",
    "name": "BP",
    "survey:date": "2017-04-04"
  }
},
{
  "type": "node",
  "id": 207205386,
  "lat": 51.9204548,
  "lon": 4.4128097,
  "tags": {
    "addr:city": "Schiedam",
    "addr:country": "NL",
    "addr:housenumber": "50",
    "addr:postcode": "3112HB",
    "addr:street": "Horvathweg",
    "amenity": "fuel",
    "brand": "Argos",
    "brand:wikidata": "Q4750477",
    "brand:wikipedia": "nl:Argos Oil",
    "mapillary": "478895063222085",
    "name": "ArgosOil",
    "source": "BAG",
    "source:date": "2014-02-11",
    "survey:date": "2017-08-07"
  }
},
{
  "type": "node",
  "id": 216315726,
  "lat": 52.1950257,
  "lon": 5.9405340,
  "tags": {
    "amenity": "fuel",
    "brand": "BP",
    "brand:wikidata": "Q152057",
    "brand:wikipedia": "en:BP",
    "fuel:diesel": "yes",
    "fuel:lpg": "yes",
    "fuel:octane_95": "yes",
    "fuel:octane_98": "yes",
    "name": "BP Wieringa",
    "opening_hours": "Mo-Fr 07:00-19:00; Sa 07:00-18:00; PH off"
  }
},
{
  "type": "node",
  "id": 235194627,
  "lat": 52.3869503,
  "lon": 4.9247512,
  "tags": {
    "amenity": "fuel",
    "brand": "Esso",
    "brand:wikidata": "Q867662",
    "brand:wikipedia": "en:Esso",
    "name": "Esso",
    "operator": "Esso",
    "source": "AND"
  }
},
{
  "type": "node",
  "id": 240866239,
  "lat": 50.9717076,
  "lon": 5.8253441,
  "tags": {
    "addr:city": "Geleen",
    "addr:country": "NL",
    "addr:housenumber": "98",
    "addr:postcode": "6161HX",
    "addr:street": "Mauritslaan",
    "amenity": "fuel",
    "brand": "Tinq",
    "brand:wikidata": "Q2132028",
    "brand:wikipedia": "nl:Tinq",
    "name": "Tinq",
    "source": "BAG",
    "source:date": "2014-03-24"
  }
},
{
  "type": "node",
  "id": 242837279,
  "lat": 52.0510453,
  "lon": 5.1095750,
  "tags": {
    "amenity": "fuel",
    "brand": "Tamoil",
    "brand:wikidata": "Q706793",
    "fuel:cng": "yes",
    "fuel:diesel": "yes",
    "fuel:octane_95": "yes",
    "name": "Tamoil Ravenswade",
    "opening_hours": "24/7",
    "operator": "Tamoil",
    "shop": "no",
    "source": "survey"
  }
},
{
  "type": "node",
  "id": 242936010,
  "lat": 51.4622849,
  "lon": 5.6330434,
  "tags": {
    "amenity": "fuel",
    "name": "ST Schoenmakers"
  }
},
{
  "type": "node",
  "id": 243671603,
  "lat": 51.5851833,
  "lon": 5.3314097,
  "tags": {
    "amenity": "fuel",
    "name": "Texaco Looijmans"
  }
},
{
  "type": "node",
  "id": 243999433,
  "lat": 51.4433398,
  "lon": 5.5130157,
  "tags": {
    "amenity": "fuel",
    "brand": "Tamoil",
    "brand:wikidata": "Q706793",
    "brand:wikipedia": "en:Tamoil",
    "name": "Tamoil"
  }
},
{
  "type": "node",
  "id": 245917004,
  "lat": 52.1235748,
  "lon": 5.0400692,
  "tags": {
    "amenity": "fuel",
    "name": "Shell"
  }
},
{
  "type": "node",
  "id": 246542720,
  "lat": 52.2157128,
  "lon": 6.9641927,
  "tags": {
    "amenity": "fuel",
    "name": "Shell ten Thije",
    "operator": "Shell"
  }
},
{
  "type": "node",
  "id": 247847442,
  "lat": 52.0354009,
  "lon": 5.6527765,
  "tags": {
    "amenity": "fuel",
    "name": "SuperTank"
  }
},
{
  "type": "node",
  "id": 248213037,
  "lat": 51.9961216,
  "lon": 4.4792244,
  "tags": {
    "addr:city": "Berkel en Rodenrijs",
    "addr:country": "NL",
    "addr:housenumber": "36",
    "addr:street": "Noordeindseweg",
    "amenity": "fuel",
    "name": "Easyfill"
  }
},
{
  "type": "node",
  "id": 248215474,
  "lat": 52.0019592,
  "lon": 4.4838379,
  "tags": {
    "addr:city": "Berkel en Rodenrijs",
    "addr:country": "NL",
    "addr:housenumber": "3",
    "addr:street": "Wilgenlaan",
    "amenity": "fuel",
    "brand": "Argos",
    "fuel:diesel": "yes",
    "fuel:lpg": "yes",
    "fuel:octane_95": "yes",
    "fuel:octane_98": "yes",
    "name": "Argos",
    "operator": "VARO",
    "website": "https://www.argos.nl/tankstation/argos-berkel-en-rodenrijs/"
  }
},
{
  "type": "node",
  "id": 248525787,
  "lat": 52.3172423,
  "lon": 4.8696211,
  "tags": {
    "addr:city": "Amstelveen",
    "addr:housenumber": "9",
    "addr:postcode": "1181ZZ",
    "addr:street": "Beneluxbaan",
    "amenity": "fuel",
    "brand": "Esso",
    "brand:wikidata": "Q867662",
    "brand:wikipedia": "nl:Esso",
    "name": "Esso Express",
    "source": "BAG",
    "source:date": "2014-03-24",
    "website": "https://www.esso.nl/nl-nl/find-station/amstelveen--essowestbeneluxbaan-100175317nl"
  }
},
{
  "type": "node",
  "id": 249718151,
  "lat": 51.6733090,
  "lon": 4.8244632,
  "tags": {
    "addr:city": "Oosterhout",
    "addr:country": "NL",
    "addr:housenumber": "3",
    "addr:postcode": "4906AA",
    "addr:street": "Innovatiepark",
    "amenity": "fuel",
    "brand": "Shell",
    "brand:wikidata": "Q154950",
    "brand:wikipedia": "en:Royal Dutch Shell",
    "name": "Shell station de Bromtol",
    "operator": "Shell"
  }
},
{
  "type": "node",
  "id": 250171659,
  "lat": 51.9245534,
  "lon": 4.3773205,
  "tags": {
    "addr:city": "Schiedam",
    "addr:country": "NL",
    "addr:housenumber": "100",
    "addr:street": "Nieuwe Damlaan",
    "amenity": "fuel",
    "brand": "Tango",
    "brand:wikidata": "Q2423920",
    "brand:wikipedia": "nl:Tango CV",
    "fuel:diesel": "yes",
    "fuel:octane_95": "yes",
    "name": "Tango Schiedam Nwe Damlaan 100",
    "opening_hours": "24/7",
    "operator": "Tango",
    "payment:dkv": "yes",
    "payment:ipay": "yes",
    "payment:maestro": "yes",
    "payment:mastercard": "yes",
    "payment:multitankcard": "yes",
    "payment:pin": "yes",
    "payment:q8_liberty": "yes",
    "payment:travelcard": "yes",
    "payment:visa": "yes",
    "payment:vpay": "yes",
    "payment:xximo": "yes",
    "phone": "+31 70 315 2500",
    "self_service": "yes",
    "website": "https://www.tango.nl/stations/Tango-Schiedam-Nwe-Damlaan-100",
    "wheelchair": "yes"
  }
},
{
  "type": "node",
  "id": 250196297,
  "lat": 51.9343341,
  "lon": 4.3774320,
  "tags": {
    "addr:city": "Schiedam",
    "addr:country": "NL",
    "addr:housenumber": "86",
    "addr:street": "Zwaluwlaan",
    "amenity": "fuel"
  }
},
{
  "type": "node",
  "id": 250230581,
  "lat": 52.5464263,
  "lon": 6.5045472,
  "tags": {
    "addr:city": "Stegeren",
    "addr:country": "NL",
    "addr:housenumber": "27c",
    "addr:postcode": "7737PE",
    "addr:street": "Coevorderweg",
    "amenity": "fuel",
    "name": "Tinq",
    "source": "BAG",
    "source:date": "2014-03-24"
  }
},
{
  "type": "node",
  "id": 250231834,
  "lat": 52.5305299,
  "lon": 6.4259913,
  "tags": {
    "amenity": "fuel",
    "brand": "Total",
    "brand:wikidata": "Q154037",
    "name": "Total"
  }
},
{
  "type": "node",
  "id": 250231836,
  "lat": 52.5293431,
  "lon": 6.4361112,
  "tags": {
    "addr:city": "Ommen",
    "addr:housenumber": "5",
    "addr:postcode": "7731TJ",
    "addr:street": "Slagenweg",
    "amenity": "fuel",
    "brand": "Firezone",
    "brand:wikidata": "Q14628080",
    "name": "Firezone",
    "operator": "Firezone",
    "source": "BAG",
    "source:date": "2014-02-11"
  }
},
{
  "type": "node",
  "id": 250409260,
  "lat": 51.9305357,
  "lon": 4.4041983,
  "tags": {
    "amenity": "fuel",
    "name": "Dijktank",
    "operator": "Shell"
  }
},
{
  "type": "node",
  "id": 250422044,
  "lat": 52.0742565,
  "lon": 5.1051639,
  "tags": {
    "amenity": "fuel",
    "name": "OK",
    "source": "survey"
  }
},
{
  "type": "node",
  "id": 251319857,
  "lat": 52.3156188,
  "lon": 4.9640907,
  "tags": {
    "addr:city": "Amsterdam",
    "addr:housenumber": "50",
    "addr:postcode": "1102BZ",
    "addr:street": "Gooiseweg",
    "amenity": "fuel",
    "brand": "Total",
    "brand:wikidata": "Q154037",
    "brand:wikipedia": "fr:TotalEnergies",
    "name": "Total Flierbos"
  }
},
{
  "type": "node",
  "id": 251319863,
  "lat": 52.3176029,
  "lon": 4.9630134,
  "tags": {
    "amenity": "fuel",
    "name": "Total Ganzenhoef"
  }
},
{
  "type": "node",
  "id": 251332505,
  "lat": 52.2206684,
  "lon": 6.8704317,
  "tags": {
    "amenity": "fuel",
    "brand": "Shell",
    "brand:wikidata": "Q110716465",
    "name": "Shell",
    "opening_hours": "24/7",
    "operator": "Shell"
  }
},
{
  "type": "node",
  "id": 251332508,
  "lat": 52.2202250,
  "lon": 6.8696452,
  "tags": {
    "addr:city": "Enschede",
    "addr:country": "NL",
    "addr:housenumber": "135",
    "addr:street": "Parkweg",
    "amenity": "fuel",
    "brand": "Tango",
    "brand:wikidata": "Q2423920",
    "fuel:diesel": "yes",
    "fuel:octane_95": "yes",
    "fuel:octane_98": "yes",
    "name": "Tango Enschede Parkweg",
    "opening_hours": "24/7",
    "operator": "Tango",
    "payment:dkv": "yes",
    "payment:ipay": "yes",
    "payment:maestro": "yes",
    "payment:mastercard": "yes",
    "payment:multitankcard": "yes",
    "payment:pin": "yes",
    "payment:q8_liberty": "yes",
    "payment:travelcard": "yes",
    "payment:visa": "yes",
    "payment:vpay": "yes",
    "payment:xximo": "yes",
    "phone": "+31 70 315 2500",
    "self_service": "yes",
    "website": "https://www.tango.nl/stations/Tango-Enschede-Parkweg"
  }
},
{
  "type": "node",
  "id": 251687335,
  "lat": 52.3516211,
  "lon": 4.6116964,
  "tags": {
    "addr:city": "Heemstede",
    "addr:country": "NL",
    "addr:housenumber": "86",
    "addr:street": "Herenweg",
    "amenity": "fuel",
    "name": "Shell Express Heemstede",
    "opening_hours": "24/7"
  }
},
{
  "type": "node",
  "id": 252133533,
  "lat": 52.4091685,
  "lon": 5.2547257,
  "tags": {
    "amenity": "fuel",
    "name": "Supertank",
    "operator": "Supertank"
  }
},
{
  "type": "node",
  "id": 252334524,
  "lat": 53.1890146,
  "lon": 6.9817908,
  "tags": {
    "amenity": "fuel",
    "operator": "Esso"
  }
},
{
  "type": "node",
  "id": 253488635,
  "lat": 52.2313371,
  "lon": 6.2773420,
  "tags": {
    "amenity": "fuel",
    "name": "Gorsselseweg"
  }
},
{
  "type": "node",
  "id": 254325326,
  "lat": 52.2153179,
  "lon": 6.9749291,
  "tags": {
    "amenity": "fuel",
    "brand": "Avia",
    "brand:wikidata": "Q300147",
    "fuel:diesel": "yes",
    "fuel:octane_95": "yes",
    "name": "Avia"
  }
},
{
  "type": "node",
  "id": 256119131,
  "lat": 52.2122275,
  "lon": 6.7417332,
  "tags": {
    "addr:city": "Hengelo",
    "addr:country": "NL",
    "addr:housenumber": "181",
    "addr:street": "Haaksbergerstraat",
    "amenity": "fuel",
    "brand": "Shell",
    "mapillary": "760013758007658",
    "name": "Shell express",
    "survey:date": "2019-08-08"
  }
},
{
  "type": "node",
  "id": 258211440,
  "lat": 52.3113891,
  "lon": 5.5649389,
  "tags": {
    "addr:city": "Ermelo",
    "addr:housenumber": "83",
    "addr:postcode": "3853LV",
    "addr:street": "Buitenbrinkweg",
    "amenity": "fuel",
    "brand": "Esso Express",
    "brand:wikidata": "Q2350336",
    "brand:wikipedia": "nl:Esso Express",
    "fuel:diesel": "yes",
    "fuel:octane_95": "yes",
    "fuel:octane_98": "yes",
    "name": "Esso Express",
    "operator": "EG Group",
    "self_service": "yes",
    "website": "https://www.esso.nl/nl-nl/find-station/ermelohorst--esso-100360309",
    "wheelchair": "yes"
  }
},
{
  "type": "node",
  "id": 259845602,
  "lat": 52.3716243,
  "lon": 6.2634489,
  "tags": {
    "addr:city": "Raalte",
    "addr:housenumber": "5a",
    "addr:postcode": "8101PM",
    "addr:street": "Nieuwe Deventerweg",
    "amenity": "fuel",
    "brand": "Firezone",
    "brand:wikidata": "Q14628080",
    "brand:wikipedia": "nl:Firezone",
    "name": "Firezone",
    "source": "BAG",
    "source:date": "2013-09-08"
  }
},
{
  "type": "node",
  "id": 261210708,
  "lat": 52.1298940,
  "lon": 5.0495890,
  "tags": {
    "amenity": "fuel",
    "name": "Esso",
    "operator": "Van Oord Maarssen BV"
  }
},
{
  "type": "node",
  "id": 261589951,
  "lat": 52.0101290,
  "lon": 4.2933674,
  "tags": {
    "addr:city": "Wateringen",
    "addr:housenumber": "2",
    "addr:street": "Wippolderlaan",
    "amenity": "fuel",
    "brand": "BP",
    "brand:wikidata": "Q152057",
    "brand:wikipedia": "en:BP",
    "name": "BP N211 De Zweth"
  }
},
{
  "type": "node",
  "id": 262174903,
  "lat": 52.0362899,
  "lon": 4.3127546,
  "tags": {
    "addr:city": "Rijswijk",
    "addr:street": "Prinses Beatrixlaan",
    "amenity": "fuel",
    "brand": "BP",
    "brand:wikidata": "Q152057",
    "brand:wikipedia": "en:BP",
    "name": "BP De Boogaard",
    "opening_hours": "24/7",
    "operator": "BP",
    "shop": "kiosk"
  }
},
{
  "type": "node",
  "id": 262399462,
  "lat": 52.1601887,
  "lon": 5.9850496,
  "tags": {
    "amenity": "fuel",
    "brand": "BP",
    "brand:wikidata": "Q152057",
    "brand:wikipedia": "en:BP",
    "fuel:diesel": "yes",
    "fuel:lpg": "yes",
    "fuel:octane_95": "yes",
    "fuel:octane_98": "yes",
    "name": "BP express",
    "opening_hours": "24/7",
    "phone": "+31 800 2727270",
    "website": "https://map.bp.com/nl-NL/NL/tankstation/beekbergen/bp-express-beekbergen/745280370"
  }
},
{
  "type": "node",
  "id": 263294981,
  "lat": 51.5211333,
  "lon": 5.6402401,
  "tags": {
    "addr:city": "Beek en Donk",
    "addr:housenumber": "42B",
    "addr:postcode": "5741HG",
    "addr:street": "Oranjelaan",
    "amenity": "fuel",
    "brand": "Tango",
    "brand:wikidata": "Q2423920",
    "fuel:diesel": "yes",
    "fuel:octane_95": "yes",
    "name": "Tango Beek en Donk",
    "opening_hours": "24/7",
    "operator": "Tango",
    "payment:dkv": "yes",
    "payment:ipay": "yes",
    "payment:maestro": "yes",
    "payment:mastercard": "yes",
    "payment:multitankcard": "yes",
    "payment:pin": "yes",
    "payment:q8_liberty": "yes",
    "payment:travelcard": "yes",
    "payment:visa": "yes",
    "payment:vpay": "yes",
    "payment:xximo": "yes",
    "self_service": "yes"
  }
},
{
  "type": "node",
  "id": 264118014,
  "lat": 52.1100000,
  "lon": 5.1378762,
  "tags": {
    "amenity": "fuel",
    "operator": "Q8",
    "source": "survey"
  }
},
{
  "type": "node",
  "id": 264363507,
  "lat": 51.6225508,
  "lon": 4.8791052,
  "tags": {
    "access": "no",
    "amenity": "fuel",
    "created_by": "JOSM",
    "hgv": "yes"
  }
},
{
  "type": "node",
  "id": 265089222,
  "lat": 52.0156537,
  "lon": 4.3354754,
  "tags": {
    "addr:city": "Delft",
    "addr:country": "NL",
    "addr:housenumber": "10",
    "addr:postcode": "2614AD",
    "addr:street": "Prinses Beatrixlaan",
    "amenity": "fuel",
    "brand": "Tango",
    "brand:wikidata": "Q2423920",
    "brand:wikipedia": "nl:Tango CV",
    "compressed_air": "yes",
    "fuel:diesel": "yes",
    "fuel:octane_95": "yes",
    "fuel:octane_98": "yes",
    "name": "Tango Delft",
    "opening_hours": "24/7",
    "operator": "Tango",
    "payment:dkv": "yes",
    "payment:ipay": "yes",
    "payment:maestro": "yes",
    "payment:mastercard": "yes",
    "payment:multitankcard": "yes",
    "payment:pin": "yes",
    "payment:q8_liberty": "yes",
    "payment:travelcard": "yes",
    "payment:visa": "yes",
    "payment:vpay": "yes",
    "payment:xximo": "yes",
    "phone": "+31 70 315 2500",
    "self_service": "yes",
    "source": "BAG",
    "source:date": "2016-01-30",
    "website": "https://www.tango.nl/stations/Tango-Delft",
    "wheelchair": "yes"
  }
},
{
  "type": "node",
  "id": 267555063,
  "lat": 52.1835119,
  "lon": 4.4706451,
  "tags": {
    "amenity": "fuel",
    "name": "Shell",
    "operator": "Shell"
  }
},
{
  "type": "node",
  "id": 269785002,
  "lat": 51.9997817,
  "lon": 5.6597986,
  "tags": {
    "addr:city": "Bennekom",
    "addr:housenumber": "10",
    "addr:postcode": "6721ND",
    "addr:street": "Doctor W. Dreeslaan",
    "amenity": "fuel",
    "brand": "Tinq",
    "brand:wikidata": "Q2132028",
    "fuel:diesel": "yes",
    "fuel:e10": "yes",
    "fuel:lpg": "yes",
    "fuel:octane_95": "yes",
    "fuel:octane_98": "yes",
    "name": "Tinq",
    "source": "BAG",
    "source:date": "2014-03-24",
    "website": "https://www.tinq.nl/tankstations/bennekom-dr-w-dreeslaan"
  }
},
{
  "type": "node",
  "id": 269785004,
  "lat": 52.0208100,
  "lon": 5.6486933,
  "tags": {
    "amenity": "fuel",
    "brand": "BP",
    "brand:wikidata": "Q152057",
    "compressed_air": "yes",
    "fuel:diesel": "yes",
    "fuel:lpg": "yes",
    "fuel:octane_95": "yes",
    "name": "BP",
    "operator": "BP",
    "wheelchair": "yes"
  }
},
{
  "type": "node",
  "id": 270360307,
  "lat": 51.9604764,
  "lon": 6.7337612,
  "tags": {
    "amenity": "fuel",
    "brand": "Avia",
    "brand:wikidata": "Q300147",
    "brand:wikipedia": "de:Avia International",
    "name": "Avia"
  }
},
{
  "type": "node",
  "id": 270454611,
  "lat": 52.0068680,
  "lon": 5.0463444,
  "tags": {
    "amenity": "fuel",
    "brand": "Shell",
    "brand:wikidata": "Q154950",
    "brand:wikipedia": "en:Royal Dutch Shell",
    "name": "Shell",
    "operator": "Shell"
  }
},
{
  "type": "node",
  "id": 271883676,
  "lat": 53.2939833,
  "lon": 5.9969624,
  "tags": {
    "addr:city": "Damwâld",
    "addr:housenumber": "8",
    "addr:postcode": "9104BG",
    "addr:street": "Haadwei",
    "amenity": "fuel",
    "brand": "Tinq",
    "brand:wikidata": "Q2132028",
    "name": "Tinq"
  }
},
{
  "type": "node",
  "id": 272479353,
  "lat": 51.1526420,
  "lon": 6.0909297,
  "tags": {
    "amenity": "fuel",
    "name": "Suntjens"
  }
},
{
  "type": "node",
  "id": 273188689,
  "lat": 53.2263464,
  "lon": 6.0844338,
  "tags": {
    "addr:city": "Kootstertille",
    "addr:housenumber": "5",
    "addr:postcode": "9288CB",
    "addr:street": "Rykswei",
    "amenity": "fuel",
    "brand": "Total",
    "brand:wikidata": "Q154037",
    "brand:wikipedia": "fr:Total (entreprise)",
    "fuel:diesel": "yes",
    "fuel:octane_95": "yes",
    "fuel:octane_98": "yes",
    "name": "Total Express",
    "operator": "Total",
    "self_service": "yes",
    "website": "https://store.total.nl/nl_NL/NN001443"
  }
},
{
  "type": "node",
  "id": 274233271,
  "lat": 51.9280956,
  "lon": 6.5643974,
  "tags": {
    "addr:city": "Aalten",
    "addr:housenumber": "1",
    "addr:postcode": "7122TL",
    "addr:street": "De Driehoek",
    "amenity": "fuel",
    "brand": "Esso Express",
    "brand:wikidata": "Q2350336",
    "brand:wikipedia": "nl:Esso Express",
    "fuel:diesel": "yes",
    "fuel:octane_95": "yes",
    "name": "Esso Express",
    "name:nl": "ESSO Express Aalten",
    "operator": "EG Group",
    "self_service": "yes",
    "website": "https://www.esso.nl/nl-nl/find-station/aalten--esso-100360291"
  }
},
{
  "type": "node",
  "id": 274233396,
  "lat": 51.9298692,
  "lon": 6.5692630,
  "tags": {
    "amenity": "fuel",
    "fuel:diesel": "yes",
    "fuel:lpg": "yes",
    "fuel:octane_95": "yes",
    "name": "Esso Aalten",
    "operator": "Esso"
  }
},
{
  "type": "node",
  "id": 274233533,
  "lat": 51.9165317,
  "lon": 6.5808406,
  "tags": {
    "amenity": "fuel",
    "name": "Total Aalten",
    "operator": "Total"
  }
},
{
  "type": "node",
  "id": 274233570,
  "lat": 51.9317226,
  "lon": 6.5927829,
  "tags": {
    "addr:city": "Aalten",
    "addr:housenumber": "113",
    "addr:postcode": "7121BG",
    "addr:street": "Bredevoortsestraatweg",
    "amenity": "fuel",
    "brand": "Argos",
    "fuel:diesel": "yes",
    "fuel:diesel_hvo_20": "yes",
    "fuel:lpg": "yes",
    "fuel:octane_95": "yes",
    "name": "ARGOS Wikkerink",
    "operator": "VARO",
    "self_service": "yes",
    "website": "https://www.argos.nl/tankstation/argos-aalten-bredevoortsestraatweg/"
  }
},
{
  "type": "node",
  "id": 274233737,
  "lat": 51.9321313,
  "lon": 6.5933362,
  "tags": {
    "addr:city": "Aalten",
    "addr:housenumber": "119",
    "addr:postcode": "7121BG",
    "addr:street": "Bredevoortsestraatweg",
    "amenity": "fuel",
    "brand": "BP",
    "brand:wikidata": "Q152057",
    "brand:wikipedia": "en:BP",
    "fuel:diesel": "yes",
    "fuel:lpg": "yes",
    "fuel:octane_95": "yes",
    "fuel:octane_98": "yes",
    "name": "BP Express",
    "name:nl": "BP Express Blekkink",
    "operator": "BP",
    "self_service": "yes",
    "website": "https://www.blekkink.nl/over-ons/brandstofstation/"
  }
},
{
  "type": "node",
  "id": 274250390,
  "lat": 53.1017435,
  "lon": 5.6220273,
  "tags": {
    "amenity": "fuel",
    "name": "Texaco"
  }
},
{
  "type": "node",
  "id": 274296177,
  "lat": 50.8599339,
  "lon": 5.7769608,
  "tags": {
    "amenity": "fuel",
    "wheelchair": "yes"
  }
},
{
  "type": "node",
  "id": 274296179,
  "lat": 50.8600712,
  "lon": 5.7821878,
  "tags": {
    "amenity": "fuel",
    "name": "Bergsteyn",
    "operator": "Total",
    "wheelchair": "yes"
  }
},
{
  "type": "node",
  "id": 274805136,
  "lat": 52.8479441,
  "lon": 6.3423020,
  "tags": {
    "amenity": "fuel",
    "brand": "Argos",
    "fuel:GTL_diesel": "yes",
    "fuel:diesel": "yes",
    "fuel:lpg": "yes",
    "fuel:octane_95": "yes",
    "fuel:octane_98": "yes",
    "name": "Blok Doeverbrug",
    "opening_hours": "Mo-Fr 06:30-20:30; Sa 07:30-20:30; Su 09:00-20:30",
    "shop": "yes"
  }
},
{
  "type": "node",
  "id": 274869580,
  "lat": 52.0344003,
  "lon": 5.6251039,
  "tags": {
    "addr:city": "Ede",
    "addr:country": "NL",
    "addr:housenumber": "118",
    "addr:postcode": "6716AA",
    "addr:street": "Frankeneng",
    "amenity": "fuel",
    "brand": "Tango",
    "brand:wikidata": "Q2423920",
    "brand:wikipedia": "nl:Tango CV",
    "fuel:diesel": "yes",
    "fuel:octane_95": "yes",
    "fuel:octane_98": "yes",
    "name": "Tango Ede Frankeneng",
    "opening_hours": "24/7",
    "payment:dkv": "yes",
    "payment:ipay": "yes",
    "payment:maestro": "yes",
    "payment:mastercard": "yes",
    "payment:multitankcard": "yes",
    "payment:pin": "yes",
    "payment:q8_liberty": "yes",
    "payment:travelcard": "yes",
    "payment:visa": "yes",
    "payment:vpay": "yes",
    "payment:xximo": "yes",
    "phone": "+31 70 315 2500",
    "self_service": "yes",
    "website": "https://www.tango.nl/stations/Tango-Ede-Frankeneng"
  }
},
{
  "type": "node",
  "id": 274870239,
  "lat": 52.0322471,
  "lon": 5.6226526,
  "tags": {
    "addr:city": "Ede",
    "addr:country": "NL",
    "addr:housenumber": "83",
    "addr:street": "Galvanistraat",
    "amenity": "fuel",
    "brand": "Tinq",
    "brand:wikidata": "Q2132028",
    "brand:wikipedia": "nl:Tinq",
    "name": "Tinq"
  }
},
{
  "type": "node",
  "id": 275030762,
  "lat": 53.3418221,
  "lon": 5.8314995,
  "tags": {
    "amenity": "fuel",
    "name": "Halma"
  }
},
{
  "type": "node",
  "id": 276377300,
  "lat": 53.3178253,
  "lon": 5.9909245,
  "tags": {
    "amenity": "fuel",
    "name": "Texaco"
  }
},
{
  "type": "node",
  "id": 276421599,
  "lat": 51.5440444,
  "lon": 4.9511470,
  "tags": {
    "amenity": "fuel",
    "brand": "Total",
    "brand:wikidata": "Q154037",
    "brand:wikipedia": "fr:Total (entreprise)",
    "name": "Total",
    "operator": "Total"
  }
},
{
  "type": "node",
  "id": 276519521,
  "lat": 53.3291388,
  "lon": 5.9968203,
  "tags": {
    "amenity": "fuel",
    "operator": "Avia Xpress"
  }
},
{
  "type": "node",
  "id": 276549088,
  "lat": 51.2125159,
  "lon": 3.8007936,
  "tags": {
    "amenity": "fuel",
    "name": "Elan",
    "operator": "Oliehandel Dekker"
  }
},
{
  "type": "node",
  "id": 277627764,
  "lat": 52.1547046,
  "lon": 4.5004804,
  "tags": {
    "addr:city": "Leiden",
    "addr:country": "NL",
    "addr:housenumber": "175-177",
    "addr:street": "Levendaal",
    "amenity": "fuel",
    "brand": "Tinq",
    "brand:wikidata": "Q2132028",
    "brand:wikipedia": "nl:Tinq",
    "name": "Tinq",
    "opening_hours": "24/7"
  }
},
{
  "type": "node",
  "id": 278212855,
  "lat": 50.8560296,
  "lon": 6.0759458,
  "tags": {
    "addr:city": "Kerkrade",
    "addr:housenumber": "109",
    "addr:postcode": "6462GP",
    "addr:street": "Nieuwstraat",
    "amenity": "fuel",
    "brand": "Lukoil",
    "brand:wikidata": "Q329347",
    "brand:wikipedia": "en:Lukoil",
    "name": "Lukoil",
    "operator": "Avia",
    "website": "http://www.lukoil.nl/go/lukoil_station.cfm?id=427"
  }
},
{
  "type": "node",
  "id": 279110684,
  "lat": 50.9909990,
  "lon": 5.8694775,
  "tags": {
    "amenity": "fuel",
    "brand": "Avia",
    "brand:wikidata": "Q300147",
    "name": "Avia",
    "opening_hours": "Mo-Fr 07:00-21:00, Sa 08:00-21:00, Su 09:00-21:00"
  }
},
{
  "type": "node",
  "id": 279712609,
  "lat": 51.3793769,
  "lon": 5.9839446,
  "tags": {
    "addr:city": "Sevenum",
    "addr:country": "NL",
    "addr:housenumber": "3",
    "addr:postcode": "5975MZ",
    "addr:street": "Midden Peelweg",
    "amenity": "fuel",
    "fuel:diesel": "yes",
    "fuel:lpg": "yes",
    "fuel:octane_95": "yes",
    "name": "V.O.F. Peters Jaspers",
    "operator": "Total"
  }
},
{
  "type": "node",
  "id": 280961787,
  "lat": 50.7740854,
  "lon": 6.0154606,
  "tags": {
    "addr:city": "Vaals",
    "addr:housenumber": "129a",
    "addr:postcode": "6291EN",
    "addr:street": "Maastrichterlaan",
    "amenity": "fuel",
    "brand": "Shell",
    "brand:wikidata": "Q154950",
    "brand:wikipedia": "en:Royal Dutch Shell",
    "fuel:diesel": "yes",
    "fuel:lpg": "yes",
    "fuel:octane_95": "yes",
    "fuel:octane_98": "yes",
    "name": "Shell",
    "source": "BAG",
    "source:date": "2014-03-24"
  }
},
{
  "type": "node",
  "id": 281175190,
  "lat": 52.4354262,
  "lon": 4.8144498,
  "tags": {
    "amenity": "fuel",
    "brand": "Avia",
    "brand:wikidata": "Q300147",
    "brand:wikipedia": "de:Avia International",
    "name": "Avia"
  }
},
{
  "type": "node",
  "id": 287514749,
  "lat": 52.3690654,
  "lon": 4.6160882,
  "tags": {
    "addr:city": "Haarlem",
    "addr:country": "NL",
    "addr:housenumber": "396A",
    "addr:postcode": "2014HM",
    "addr:street": "Leidsevaart",
    "amenity": "fuel",
    "brand": "Shell",
    "brand:wikidata": "Q154950",
    "brand:wikipedia": "en:Royal Dutch Shell",
    "name": "Shell NZH",
    "operator": "Shell",
    "source": "BAG",
    "source:date": "2014-02-11",
    "wheelchair": "yes"
  }
},
{
  "type": "node",
  "id": 289661456,
  "lat": 51.6519821,
  "lon": 4.8526052,
  "tags": {
    "amenity": "fuel",
    "name": "Firezone"
  }
},
{
  "type": "node",
  "id": 289661458,
  "lat": 51.6485337,
  "lon": 4.8504254,
  "tags": {
    "amenity": "fuel",
    "name": "Pin&Go"
  }
},
{
  "type": "node",
  "id": 289663748,
  "lat": 51.6498447,
  "lon": 4.8689414,
  "tags": {
    "addr:city": "Oosterhout",
    "addr:country": "NL",
    "addr:housenumber": "4",
    "addr:postcode": "4901DJ",
    "addr:street": "Pasteurlaan",
    "amenity": "fuel",
    "compressed_air": "yes",
    "name": "BP Strijen/Smits",
    "operator": "BP"
  }
},
{
  "type": "node",
  "id": 289663749,
  "lat": 51.6495454,
  "lon": 4.8693914,
  "tags": {
    "addr:city": "Oosterhout",
    "addr:country": "NL",
    "addr:housenumber": "7",
    "addr:postcode": "4901DH",
    "addr:street": "Pasteurlaan",
    "amenity": "fuel",
    "name": "Shell station Pasteurlaan",
    "operator": "Shell"
  }
},
{
  "type": "node",
  "id": 289985835,
  "lat": 52.5794049,
  "lon": 4.9331850,
  "tags": {
    "addr:city": "Noordbeemster",
    "addr:country": "NL",
    "addr:housenumber": "35",
    "addr:postcode": "1463LM",
    "addr:street": "Oosthuizerweg",
    "amenity": "fuel",
    "capacity": "4",
    "fuel:diesel": "yes",
    "fuel:octane_95": "yes",
    "maxheight": "4.20",
    "opening_hours": "Mo-Su 07:00-21:00",
    "operator": "Tinq",
    "self_service": "yes",
    "website": "https://www.tinq.nl/tankstations/noordbeemster-oosterhuizerweg"
  }
},
{
  "type": "node",
  "id": 292841158,
  "lat": 52.2891852,
  "lon": 4.8668822,
  "tags": {
    "amenity": "fuel",
    "name": "Sakko",
    "operator": "Sakko"
  }
},
{
  "type": "node",
  "id": 292841598,
  "lat": 52.2917554,
  "lon": 4.8420864,
  "tags": {
    "addr:city": "Amstelveen",
    "addr:country": "NL",
    "addr:housenumber": "11",
    "addr:postcode": "1185XZ",
    "addr:street": "Noorddammerlaan",
    "amenity": "fuel",
    "operator": "Shell",
    "website": "https://find.shell.com/nl/fuel/12882581-shell-noorddammerlaan/nl_NL"
  }
},
{
  "type": "node",
  "id": 293235239,
  "lat": 52.0280811,
  "lon": 4.3627334,
  "tags": {
    "addr:city": "'s-Gravenhage",
    "addr:country": "NL",
    "addr:housenumber": "225",
    "addr:postcode": "2497NX",
    "addr:street": "Brasserskade",
    "amenity": "fuel",
    "brand": "Esso",
    "brand:wikidata": "Q867662",
    "brand:wikipedia": "en:Esso",
    "name": "Esso"
  }
},
{
  "type": "node",
  "id": 293658042,
  "lat": 51.9527213,
  "lon": 5.2372808,
  "tags": {
    "addr:city": "Culemborg",
    "addr:housenumber": "31",
    "addr:postcode": "4102AD",
    "addr:street": "Händellaan",
    "address": "Handellaan 37",
    "amenity": "fuel",
    "brand": "Tango",
    "brand:wikidata": "Q2423920",
    "brand:wikipedia": "nl:Tango CV",
    "compressed_air": "yes",
    "fuel:diesel": "yes",
    "fuel:octane_95": "yes",
    "name": "Tango",
    "opening_hours": "maandag - zondag07:00 tot 21:00",
    "operator": "Tango",
    "payment:cash": "no",
    "payment:dkv": "yes",
    "payment:ipay": "yes",
    "payment:maestro": "yes",
    "payment:mastercard": "yes",
    "payment:multitankcard": "yes",
    "payment:pin": "yes",
    "payment:q8_liberty": "yes",
    "payment:travelcard": "yes",
    "payment:visa": "yes",
    "payment:vpay": "yes",
    "payment:xximo": "yes",
    "self_service": "yes",
    "website": "https://www.tango.nl/stations/tango-culemborg-handellaan"
  }
},
{
  "type": "node",
  "id": 295125483,
  "lat": 12.1608594,
  "lon": -68.9642143,
  "tags": {
    "addr:country": "CW",
    "addr:street": "Weg naar Westpunt",
    "amenity": "fuel",
    "name": "Curoil Juan Domingo",
    "operator": "Curoil",
    "source": "CurOil"
  }
},
{
  "type": "node",
  "id": 295401732,
  "lat": 51.8954734,
  "lon": 6.5857672,
  "tags": {
    "amenity": "fuel",
    "check_date:opening_hours": "2022-01-29",
    "fuel:diesel": "yes",
    "fuel:lpg": "yes",
    "fuel:octane_95": "yes",
    "fuel:octane_98": "yes",
    "name": "Hameland Stop",
    "opening_hours": "Mo-Fr 08:00-19:00; Sa 09:00-18:00; Su 10:00-19:00",
    "operator": "no",
    "wheelchair": "no"
  }
},
{
  "type": "node",
  "id": 295433323,
  "lat": 52.2892819,
  "lon": 4.8221934,
  "tags": {
    "addr:city": "Aalsmeer",
    "addr:country": "NL",
    "addr:housenumber": "497",
    "addr:street": "Aalsmeerderweg",
    "amenity": "fuel",
    "name": "Loogman",
    "wheelchair": "yes"
  }
},
{
  "type": "node",
  "id": 296016178,
  "lat": 51.9837851,
  "lon": 5.7530286,
  "tags": {
    "addr:city": "Heelsum",
    "addr:housenumber": "40",
    "addr:postcode": "6866DE",
    "addr:street": "Bennekomseweg",
    "amenity": "fuel",
    "brand": "Total",
    "brand:wikidata": "Q154037",
    "brand:wikipedia": "fr:Total (entreprise)",
    "name": "Total",
    "source": "BAG",
    "source:date": "2014-08-13"
  }
},
{
  "type": "node",
  "id": 297304860,
  "lat": 52.2946116,
  "lon": 4.8490454,
  "tags": {
    "addr:city": "Amstelveen",
    "addr:country": "NL",
    "addr:housenumber": "55",
    "addr:postcode": "1185LC",
    "addr:street": "Lindenlaan",
    "amenity": "fuel",
    "brand": "Tinq",
    "brand:wikidata": "Q2132028",
    "brand:wikipedia": "nl:Tinq",
    "name": "Tinq",
    "operator": "Tinq",
    "website": "http://tinq.nl"
  }
},
{
  "type": "node",
  "id": 297469170,
  "lat": 50.8350325,
  "lon": 5.6533456,
  "tags": {
    "amenity": "fuel",
    "brand": "Shell"
  }
},
{
  "type": "node",
  "id": 298441880,
  "lat": 51.9151870,
  "lon": 4.6169249,
  "tags": {
    "addr:city": "Krimpen aan den IJssel",
    "addr:housenumber": "9",
    "addr:postcode": "2925CJ",
    "addr:street": "Olm",
    "amenity": "fuel",
    "brand": "Texaco",
    "brand:wikidata": "Q775060",
    "brand:wikipedia": "en:Texaco",
    "name": "Texaco",
    "operator": "Texaco"
  }
},
{
  "type": "node",
  "id": 298775978,
  "lat": 51.3434738,
  "lon": 5.8800825,
  "tags": {
    "amenity": "fuel",
    "brand": "Shell",
    "name": "Shell",
    "operator": "Shell"
  }
},
{
  "type": "node",
  "id": 298885460,
  "lat": 50.9116597,
  "lon": 5.9614483,
  "tags": {
    "amenity": "fuel",
    "brand": "Total",
    "brand:wikidata": "Q154037",
    "name": "Minli"
  }
},
{
  "type": "node",
  "id": 298888998,
  "lat": 50.8762804,
  "lon": 5.9327951,
  "tags": {
    "addr:city": "Voerendaal",
    "addr:housenumber": "78",
    "addr:postcode": "6367BG",
    "addr:street": "Hogeweg",
    "amenity": "fuel",
    "brand": "Gulf",
    "brand:wikidata": "Q1296860",
    "brand:wikipedia": "en:Gulf Oil",
    "fuel:b7": "yes",
    "fuel:diesel": "yes",
    "fuel:e10": "yes",
    "fuel:e5": "yes",
    "fuel:octane_95": "yes",
    "fuel:octane_98": "yes",
    "name": "Gulf Tankstation & Carwash Voerendaal",
    "opening_hours": "Mo-Fr 07:00-20:00; Sa 08:00-20:00; Su 09:00-19:00",
    "self_service": "yes",
    "website": "http://gulfvoerendaal.nl/",
    "wheelchair": "yes"
  }
},
{
  "type": "node",
  "id": 298890029,
  "lat": 52.4596104,
  "lon": 4.6494805,
  "tags": {
    "addr:city": "Velsen-Zuid",
    "addr:housenumber": "37",
    "addr:street": "'s Gravenlust",
    "amenity": "fuel",
    "fuel:diesel": "yes",
    "fuel:octane_95": "yes",
    "name": "Esso Express",
    "opening_hours": "24/7"
  }
},
{
  "type": "node",
  "id": 300057166,
  "lat": 51.8878704,
  "lon": 5.8401802,
  "tags": {
    "amenity": "fuel",
    "brand": "Total",
    "brand:wikidata": "Q154037",
    "fuel:diesel": "yes",
    "fuel:octane_95": "yes",
    "fuel:octane_98": "yes",
    "name": "Total De Rietgraaf",
    "opening_hours": "24/7",
    "self_service": "yes",
    "website": "https://store.total.nl/nl_NL/NN001454",
    "wheelchair": "yes"
  }
},
{
  "type": "node",
  "id": 300282214,
  "lat": 52.2016615,
  "lon": 4.4458504,
  "tags": {
    "addr:city": "Rijnsburg",
    "addr:country": "NL",
    "addr:housenumber": "43",
    "addr:street": "Noordwijkerweg",
    "amenity": "fuel",
    "name": "Tinq"
  }
},
{
  "type": "node",
  "id": 300317216,
  "lat": 51.9199634,
  "lon": 4.6045745,
  "tags": {
    "amenity": "fuel",
    "name": "Autofood",
    "operator": "Shell"
  }
},
{
  "type": "node",
  "id": 301222795,
  "lat": 52.3625970,
  "lon": 6.4558983,
  "tags": {
    "amenity": "fuel",
    "fuel:diesel": "yes",
    "fuel:e10": "yes",
    "name": "Amigo",
    "phone": "+31 575 517 957"
  }
},
{
  "type": "node",
  "id": 301590520,
  "lat": 51.3347784,
  "lon": 5.9971604,
  "tags": {
    "addr:city": "Panningen",
    "addr:housenumber": "29",
    "addr:postcode": "5981NZ",
    "addr:street": "Maasbreeseweg",
    "amenity": "fuel",
    "name": "Vissers Oliehandel",
    "opening_hours": "Mo-Fr 06:30-21:00; Sa 07:00-21:00; Su 09:00-20:00",
    "operator": "Esso",
    "source": "BAG",
    "source:date": "2014-08-10"
  }
},
{
  "type": "node",
  "id": 302088714,
  "lat": 51.4227039,
  "lon": 5.5715905,
  "tags": {
    "addr:city": "Geldrop",
    "addr:housenumber": "132",
    "addr:postcode": "5666AP",
    "addr:street": "Sluisstraat",
    "amenity": "fuel",
    "name": "Firebird"
  }
},
{
  "type": "node",
  "id": 302330969,
  "lat": 52.0422581,
  "lon": 4.6412169,
  "tags": {
    "addr:city": "Waddinxveen",
    "addr:country": "NL",
    "addr:housenumber": "20",
    "addr:postcode": "2743CH",
    "addr:street": "Dreef",
    "amenity": "fuel",
    "name": "Esso Waddinxveen",
    "opening_hours": "Mo-Su 06:00-07:00,22:00-22:00",
    "operator": "EFR SERVICES NETHERLANDS B.V.",
    "source": "survey"
  }
},
{
  "type": "node",
  "id": 302331080,
  "lat": 52.0453641,
  "lon": 4.6548137,
  "tags": {
    "addr:city": "Waddinxveen",
    "addr:country": "NL",
    "addr:housenumber": "1",
    "addr:postcode": "2741ED",
    "addr:street": "Juliana van Stolberglaan",
    "amenity": "fuel",
    "name": "Shell Boonstoppel",
    "operator": "Shell",
    "source": "survey"
  }
},
{
  "type": "node",
  "id": 302331223,
  "lat": 52.0501564,
  "lon": 4.6419201,
  "tags": {
    "amenity": "fuel",
    "brand": "Tango",
    "brand:wikidata": "Q2423920",
    "fuel:diesel": "yes",
    "fuel:octane_95": "yes",
    "fuel:octane_98": "yes",
    "name": "Tango Waddinxveen Beethovenlaan",
    "opening_hours": "maandag - zondag07:00 tot 23:00",
    "operator": "Tango",
    "payment:dkv": "yes",
    "payment:ipay": "yes",
    "payment:maestro": "yes",
    "payment:mastercard": "yes",
    "payment:multitankcard": "yes",
    "payment:pin": "yes",
    "payment:q8_liberty": "yes",
    "payment:travelcard": "yes",
    "payment:visa": "yes",
    "payment:vpay": "yes",
    "payment:xximo": "yes",
    "phone": "+31 70 315 2500",
    "self_service": "yes",
    "source": "survey",
    "website": "https://www.tango.nl/stations/Tango-Waddinxveen-Beethovenlaan"
  }
},
{
  "type": "node",
  "id": 302606551,
  "lat": 52.0447031,
  "lon": 4.6606008,
  "tags": {
    "amenity": "fuel",
    "name": "Tinq",
    "source": "survey"
  }
},
{
  "type": "node",
  "id": 303742315,
  "lat": 51.7701952,
  "lon": 5.6349655,
  "tags": {
    "amenity": "fuel",
    "brand": "Total",
    "name": "Total Berghemseweg",
    "source": "AND"
  }
},
{
  "type": "node",
  "id": 303987810,
  "lat": 52.2262518,
  "lon": 4.6759031,
  "tags": {
    "amenity": "fuel",
    "name": "N207",
    "source": "AND"
  }
},
{
  "type": "node",
  "id": 304358994,
  "lat": 52.0740355,
  "lon": 4.5578140,
  "tags": {
    "addr:city": "Benthuizen",
    "addr:country": "NL",
    "addr:housenumber": "1",
    "addr:postcode": "2731BS",
    "addr:street": "Bentwoudlaan",
    "amenity": "fuel",
    "brand": "Argos",
    "name": "Argos",
    "source": "BAG",
    "source:date": "2014-02-11"
  }
},
{
  "type": "node",
  "id": 304848057,
  "lat": 51.7365179,
  "lon": 5.6329749,
  "tags": {
    "addr:city": "Schaijk",
    "addr:housenumber": "2",
    "addr:postcode": "5374RK",
    "addr:street": "Udensedreef",
    "amenity": "fuel",
    "brand": "Lukoil",
    "brand:wikidata": "Q329347",
    "brand:wikipedia": "en:Lukoil",
    "fuel:diesel": "yes",
    "fuel:lpg": "yes",
    "fuel:octane_95": "yes",
    "fuel:octane_98": "yes",
    "name": "Lukoil",
    "opening_hours": "24/7",
    "operator": "Lukoil",
    "self_service": "yes",
    "source": "BAG",
    "source:date": "2014-06-13",
    "website": "http://www.lukoil.nl/go/lukoil_station.cfm?id=457"
  }
},
{
  "type": "node",
  "id": 304929393,
  "lat": 53.1162983,
  "lon": 6.0968966,
  "tags": {
    "addr:city": "Drachten",
    "addr:housenumber": "146",
    "addr:postcode": "9201GT",
    "addr:street": "Stationsweg",
    "amenity": "fuel",
    "brand": "Total",
    "brand:wikidata": "Q154037",
    "name": "Total De Vries",
    "operator": "Total"
  }
},
{
  "type": "node",
  "id": 305459132,
  "lat": 53.1089428,
  "lon": 6.0881021,
  "tags": {
    "addr:city": "Drachten",
    "addr:postcode": "9201CH",
    "addr:street": "De Lange West",
    "amenity": "fuel",
    "brand": "Esso Express",
    "brand:wikidata": "Q2350336",
    "brand:wikipedia": "nl:Esso Express",
    "fuel:diesel": "yes",
    "fuel:octane_95": "yes",
    "name": "Esso Express",
    "name:nl": "Esso Express",
    "opening_hours": "24/7",
    "operator": "EG Group",
    "payment:maestro": "yes",
    "self_service": "yes",
    "website": "https://www.essofuelfinder.nl/nl-nl/drachten--esso-100360304"
  }
},
{
  "type": "node",
  "id": 305459133,
  "lat": 53.1022789,
  "lon": 6.0819666,
  "tags": {
    "addr:city": "Drachten",
    "addr:housenumber": "78",
    "addr:postcode": "9203SZ",
    "addr:street": "Zuiderhogeweg",
    "amenity": "fuel",
    "brand": "BP",
    "brand:wikidata": "Q152057",
    "fuel:lpg": "yes",
    "name": "BP Zuiderhogeweg",
    "operator": "BP",
    "phone": "+31 512 514 004",
    "source": "BAG",
    "source:date": "2014-07-06"
  }
},
{
  "type": "node",
  "id": 305459134,
  "lat": 53.0986137,
  "lon": 6.0746124,
  "tags": {
    "amenity": "fuel",
    "brand": "Total",
    "brand:wikidata": "Q154037",
    "name": "Total",
    "operator": "Total"
  }
},
{
  "type": "node",
  "id": 305518703,
  "lat": 51.5841774,
  "lon": 4.6656454,
  "tags": {
    "addr:city": "Etten-Leur",
    "addr:country": "NL",
    "addr:housenumber": "34",
    "addr:postcode": "4871EP",
    "addr:street": "Pottenbakkerstraat",
    "amenity": "fuel",
    "contact:facebook": "https://www.facebook.com/BerkmanTankstations/",
    "contact:phone": "+31180643643",
    "contact:website": "https://www.berkman.nl/",
    "fuel:diesel": "yes",
    "fuel:octane_95": "yes",
    "name": "Berkman",
    "opening_hours": "24/7",
    "payment:cards": "yes",
    "payment:pin": "yes"
  }
},
{
  "type": "node",
  "id": 305645328,
  "lat": 51.7369813,
  "lon": 5.6741526,
  "tags": {
    "addr:city": "Reek",
    "addr:housenumber": "72",
    "addr:postcode": "5375KZ",
    "addr:street": "Rijksweg",
    "amenity": "fuel",
    "name": "Esso",
    "operator": "Texaco",
    "source": "BAG",
    "source:date": "2014-06-12"
  }
},
{
  "type": "node",
  "id": 305650988,
  "lat": 51.7399137,
  "lon": 5.6820024,
  "tags": {
    "amenity": "fuel",
    "name": "TinQ",
    "operator": "Gulf"
  }
},
{
  "type": "node",
  "id": 306222329,
  "lat": 52.2116980,
  "lon": 4.4969820,
  "tags": {
    "amenity": "fuel",
    "brand": "Esso",
    "brand:wikidata": "Q867662",
    "name": "Esso",
    "operator": "Esso"
  }
},
{
  "type": "node",
  "id": 307062141,
  "lat": 52.0163847,
  "lon": 4.6213644,
  "tags": {
    "addr:city": "Zevenhuizen",
    "addr:country": "NL",
    "addr:housenumber": "144",
    "addr:postcode": "2761KC",
    "addr:street": "Bredeweg",
    "amenity": "fuel",
    "name": "Total Weerheim",
    "operator": "Total",
    "source": "BAG",
    "source:date": "2014-03-24"
  }
},
{
  "type": "node",
  "id": 307335073,
  "lat": 52.5318268,
  "lon": 5.5190930,
  "tags": {
    "addr:city": "Lelystad",
    "addr:country": "NL",
    "addr:housenumber": "1",
    "addr:street": "Binnenhavenweg",
    "amenity": "fuel",
    "brand": "Tinq",
    "brand:wikidata": "Q2132028",
    "name": "Tinq"
  }
},
{
  "type": "node",
  "id": 307629803,
  "lat": 51.9432402,
  "lon": 6.7800932,
  "tags": {
    "amenity": "fuel",
    "brand": "Vrije Pomp",
    "name": "Hotink Brandstoffen"
  }
},
{
  "type": "node",
  "id": 308770856,
  "lat": 51.6438283,
  "lon": 4.6098474,
  "tags": {
    "alt_name": "Shell Zevenbergen",
    "amenity": "fuel",
    "brand": "Shell",
    "brand:wikidata": "Q154950",
    "brand:wikipedia": "en:Royal Dutch Shell",
    "name": "Shell Servicestation Andreae",
    "opening_hours": "Mo-Fr 06:00-22:00; Sa 08:00-22:00; Su 09:00-22:00",
    "operator": "Andrea",
    "shop": "yes",
    "website": "http://shellzevenbergen.nl/"
  }
},
{
  "type": "node",
  "id": 309418541,
  "lat": 52.3590857,
  "lon": 4.6651925,
  "tags": {
    "addr:city": "Haarlem",
    "addr:country": "NL",
    "addr:housenumber": "3",
    "addr:postcode": "2037GK",
    "addr:street": "Bernadottelaan",
    "amenity": "fuel",
    "brand": "Total",
    "name": "Total Auto D'ELLO",
    "phone": "+31 23 533 0660",
    "source": "BAG",
    "source:date": "2014-02-11",
    "website": "https://autodello.nl/",
    "wheelchair": "yes"
  }
},
{
  "type": "node",
  "id": 310112261,
  "lat": 53.3313383,
  "lon": 6.0099953,
  "tags": {
    "addr:city": "Dokkum",
    "addr:country": "NL",
    "addr:housenumber": "4",
    "addr:street": "Dongeradyk",
    "amenity": "fuel",
    "name": "Shell express"
  }
},
{
  "type": "node",
  "id": 311148745,
  "lat": 50.8797613,
  "lon": 5.6732713,
  "tags": {
    "addr:city": "Maastricht",
    "addr:country": "NL",
    "addr:housenumber": "780",
    "addr:street": "Brusselseweg",
    "amenity": "fuel",
    "name": "Tinq"
  }
},
{
  "type": "node",
  "id": 313494264,
  "lat": 52.1366560,
  "lon": 5.0300973,
  "tags": {
    "addr:city": "Maarssen",
    "addr:country": "NL",
    "addr:housenumber": "383",
    "addr:postcode": "3605JZ",
    "addr:street": "Bisonspoor",
    "amenity": "fuel",
    "brand": "Tango",
    "brand:wikidata": "Q2423920",
    "brand:wikipedia": "nl:Tango CV",
    "fuel:diesel": "yes",
    "fuel:octane_95": "yes",
    "name": "Tango Maarssenbroek",
    "opening_hours": "24/7",
    "payment:dkv": "yes",
    "payment:ipay": "yes",
    "payment:maestro": "yes",
    "payment:mastercard": "yes",
    "payment:multitankcard": "yes",
    "payment:pin": "yes",
    "payment:q8_liberty": "yes",
    "payment:travelcard": "yes",
    "payment:visa": "yes",
    "payment:vpay": "yes",
    "payment:xximo": "yes",
    "phone": "+31 70 315 2500",
    "self_service": "yes",
    "website": "https://www.tango.nl/stations/Tango-Maarssenbroek"
  }
},
{
  "type": "node",
  "id": 313860077,
  "lat": 52.1461646,
  "lon": 4.4905561,
  "tags": {
    "amenity": "fuel",
    "brand": "Total",
    "name": "Total Lammenschans",
    "operator": "Total"
  }
},
{
  "type": "node",
  "id": 314436989,
  "lat": 52.2441848,
  "lon": 6.1123733,
  "tags": {
    "addr:city": "Twello",
    "addr:country": "NL",
    "addr:housenumber": "63",
    "addr:postcode": "7391MH",
    "addr:street": "Rijksstraatweg",
    "amenity": "fuel",
    "brand": "Tinq",
    "brand:wikidata": "Q2132028",
    "brand:wikipedia": "nl:Tinq",
    "name": "Tinq",
    "website": "https://www.tinq.nl/tankstations/twello-rijksstraatweg"
  }
},
{
  "type": "node",
  "id": 314977976,
  "lat": 52.5390493,
  "lon": 5.5210785,
  "tags": {
    "amenity": "fuel",
    "name": "Supertank",
    "operator": "Supertank"
  }
},
{
  "type": "node",
  "id": 316706724,
  "lat": 51.5178806,
  "lon": 5.9799664,
  "tags": {
    "amenity": "fuel",
    "created_by": "Potlatch 0.10f",
    "name": "BP Venray",
    "operator": "BP"
  }
},
{
  "type": "node",
  "id": 316706726,
  "lat": 51.5117334,
  "lon": 5.9803510,
  "tags": {
    "addr:city": "Leunen",
    "addr:country": "NL",
    "addr:housenumber": "5",
    "addr:postcode": "5809AB",
    "addr:street": "Albionstraat",
    "amenity": "fuel",
    "brand": "Esso",
    "brand:wikidata": "Q867662",
    "name": "Esso Vissers",
    "operator": "Esso"
  }
},
{
  "type": "node",
  "id": 316927693,
  "lat": 51.9500264,
  "lon": 4.6104965,
  "tags": {
    "amenity": "fuel",
    "name": "Autobedrijf Neleman",
    "operator": "Autobedrijf Neleman",
    "source": "survey"
  }
},
{
  "type": "node",
  "id": 317754980,
  "lat": 52.1603913,
  "lon": 5.3980546,
  "tags": {
    "addr:city": "Amersfoort",
    "addr:country": "NL",
    "addr:housenumber": "8",
    "addr:postcode": "3814AL",
    "addr:street": "Van Randwijcklaan",
    "amenity": "fuel",
    "brand": "Tango",
    "brand:wikidata": "Q2423920",
    "brand:wikipedia": "nl:Tango CV",
    "fuel:diesel": "yes",
    "fuel:octane_95": "yes",
    "fuel:octane_98": "yes",
    "name": "Tango Amersfoort Randwijcklaan",
    "opening_hours": "24/7",
    "payment:dkv": "yes",
    "payment:ipay": "yes",
    "payment:maestro": "yes",
    "payment:mastercard": "yes",
    "payment:multitankcard": "yes",
    "payment:pin": "yes",
    "payment:q8_liberty": "yes",
    "payment:visa": "yes",
    "payment:vpay": "yes",
    "payment:xximo": "yes",
    "phone": "+31 70 315 2500",
    "self_service": "yes",
    "website": "https://www.tango.nl/stations/Tango-Amersfoort-Randwijcklaan"
  }
},
{
  "type": "node",
  "id": 318212295,
  "lat": 50.8109892,
  "lon": 5.9166051,
  "tags": {
    "amenity": "fuel",
    "fuel:diesel": "yes",
    "fuel:lpg": "yes",
    "fuel:octane_98": "yes",
    "name": "BP Vissers Wittem",
    "operator": "BP"
  }
},
{
  "type": "node",
  "id": 319180691,
  "lat": 51.3339499,
  "lon": 6.1603269,
  "tags": {
    "addr:city": "Tegelen",
    "addr:housenumber": "111",
    "addr:postcode": "5932DA",
    "addr:street": "Kaldenkerkerweg",
    "amenity": "fuel",
    "brand": "Esso Express",
    "brand:wikidata": "Q2350336",
    "brand:wikipedia": "nl:Esso Express",
    "name": "Esso Express Vissers Tegelen",
    "operator": "Vissers Energy Group",
    "source": "BAG",
    "source:date": "2014-07-02"
  }
},
{
  "type": "node",
  "id": 322033046,
  "lat": 51.3804374,
  "lon": 6.2128436,
  "tags": {
    "amenity": "fuel",
    "brand": "Tamoil",
    "compressed_air": "no",
    "mapillary": "273782324845796",
    "name": "Gulf",
    "survey:date": "2022-01-18"
  }
},
{
  "type": "node",
  "id": 325784675,
  "lat": 51.6335941,
  "lon": 4.8699035,
  "tags": {
    "amenity": "fuel",
    "brand": "Esso Express",
    "brand:wikidata": "Q2350336",
    "brand:wikipedia": "nl:Esso Express",
    "name": "Esso Express"
  }
},
{
  "type": "node",
  "id": 327040962,
  "lat": 52.2013749,
  "lon": 4.4162418,
  "tags": {
    "addr:city": "Katwijk",
    "addr:housenumber": "1",
    "addr:postcode": "2224EW",
    "addr:street": "Koningin Julianalaan",
    "amenity": "fuel",
    "brand": "Total",
    "brand:wikidata": "Q154037",
    "brand:wikipedia": "fr:TotalEnergies",
    "fuel:diesel": "yes",
    "fuel:octane_95": "yes",
    "fuel:octane_98": "yes",
    "name": "Total",
    "operator": "Total",
    "self_service": "yes",
    "website": "https://store.totalenergies.nl/nl_NL/NN001353"
  }
},
{
  "type": "node",
  "id": 329463467,
  "lat": 52.2598961,
  "lon": 5.1389998,
  "tags": {
    "amenity": "fuel",
    "operator": "Shell"
  }
},
{
  "type": "node",
  "id": 329464601,
  "lat": 52.2757132,
  "lon": 5.1070389,
  "tags": {
    "amenity": "fuel",
    "operator": "Argos"
  }
},
{
  "type": "node",
  "id": 329486756,
  "lat": 52.2413851,
  "lon": 5.1204147,
  "tags": {
    "amenity": "fuel",
    "brand": "Avia",
    "brand:wikidata": "Q300147",
    "brand:wikipedia": "de:Avia International",
    "name": "Avia",
    "self_service": "yes"
  }
},
{
  "type": "node",
  "id": 330225176,
  "lat": 51.3484874,
  "lon": 6.1447446,
  "tags": {
    "addr:city": "Tegelen",
    "addr:country": "NL",
    "addr:housenumber": "38",
    "addr:postcode": "5931GT",
    "addr:street": "Venloseweg",
    "amenity": "fuel",
    "brand": "Tango",
    "brand:wikidata": "Q2423920",
    "fuel:diesel": "yes",
    "fuel:octane_95": "yes",
    "fuel:octane_98": "yes",
    "name": "Tango Tegelen",
    "opening_hours": "maandag - zondag 06:00 tot 23:00",
    "operator": "Tango",
    "payment:dkv": "yes",
    "payment:ipay": "yes",
    "payment:maestro": "yes",
    "payment:mastercard": "yes",
    "payment:multitankcard": "yes",
    "payment:pin": "yes",
    "payment:q8_liberty": "yes",
    "payment:travelcard": "yes",
    "payment:visa": "yes",
    "payment:vpay": "yes",
    "payment:xximo": "yes",
    "phone": "+31-703152500",
    "self_service": "yes",
    "source": "BAG",
    "source:date": "2014-07-01",
    "website": "https://www.tango.nl/stations/Tango-Tegelen"
  }
},
{
  "type": "node",
  "id": 331040981,
  "lat": 51.9557490,
  "lon": 4.5149777,
  "tags": {
    "addr:street": "Molenlaan",
    "amenity": "fuel",
    "brand": "Esso",
    "brand:wikidata": "Q867662",
    "brand:wikipedia": "en:Esso",
    "name": "Molenlaan"
  }
},
{
  "type": "node",
  "id": 331068942,
  "lat": 52.9823456,
  "lon": 6.6489540,
  "tags": {
    "addr:city": "Rolde",
    "addr:housenumber": "46",
    "addr:postcode": "9451KC",
    "addr:street": "Grolloërstraat",
    "amenity": "fuel",
    "brand": "Tango",
    "brand:wikidata": "Q2423920",
    "brand:wikipedia": "nl:Tango CV",
    "fuel:diesel": "yes",
    "fuel:lpg": "no",
    "fuel:octane_95": "yes",
    "fuel:octane_98": "yes",
    "mapillary": "2649465312026160",
    "name": "Tango Rolde",
    "opening_hours": "Mo-Su 07:00-23:00",
    "payment:dkv": "yes",
    "payment:ipay": "yes",
    "payment:maestro": "yes",
    "payment:mastercard": "yes",
    "payment:multitankcard": "yes",
    "payment:pin": "yes",
    "payment:q8_liberty": "yes",
    "payment:travelcard": "yes",
    "payment:visa": "yes",
    "payment:vpay": "yes",
    "payment:xximo": "yes",
    "phone": "+31 70 315 2500",
    "self_service": "yes",
    "survey:date": "2021-09-06",
    "website": "https://www.tango.nl/stations/Tango-Rolde"
  }
},
{
  "type": "node",
  "id": 331075448,
  "lat": 53.0614378,
  "lon": 6.4587453,
  "tags": {
    "amenity": "fuel",
    "brand": "Gulf",
    "fuel:e10": "no",
    "fuel:lpg": "no",
    "mapillary": "296208035554996",
    "name": "Kregel Norg",
    "shop": "yes",
    "survey:date": "2019-09-01"
  }
},
{
  "type": "node",
  "id": 331548709,
  "lat": 52.2400785,
  "lon": 6.8924137,
  "tags": {
    "addr:city": "Enschede",
    "addr:housenumber": "50",
    "addr:postcode": "7523GC",
    "addr:street": "IJsselstraat",
    "amenity": "fuel",
    "brand": "Argos",
    "brand:wikidata": "Q4750477",
    "brand:wikipedia": "nl:Argos Oil",
    "fuel:diesel": "yes",
    "fuel:octane_95": "yes",
    "fuel:octane_98": "yes",
    "name": "Argos",
    "operator": "VARO",
    "self_service": "yes",
    "source": "https://www.argos.nl/tankstation/argos-enschede/",
    "website": "https://www.argos.nl/tankstation/argos-enschede/"
  }
},
{
  "type": "node",
  "id": 332117612,
  "lat": 52.0792818,
  "lon": 4.6263139,
  "tags": {
    "addr:city": "Hazerswoude-Dorp",
    "addr:country": "NL",
    "addr:housenumber": "12",
    "addr:postcode": "2391PT",
    "addr:street": "Italiëlaan",
    "amenity": "fuel",
    "name": "Tank & Wash ITC",
    "operator": "Van Aalst Oliehandel",
    "source": "BAG",
    "source:date": "2014-02-11"
  }
},